{
  "data": [
    {
      "chainCode": "AC",
      "iataCode": "LON",
      "dupeId": 700095490,
      "name": "LA GAFFE LONDON",
      "hotelId": "ACLONGAF",
      "geoCode": {
        "latitude": 51.55936,
        "longitude": -0.17844
      },
      "address": {
        "countryCode": "GB"
      },
      "lastUpdate": "2023-06-15T09:52:06"
    },
    {
      "chainCode": "AC",
      "iataCode": "LON",
      "dupeId": 700031349,
      "name": "PRINCE WILLIAM",
      "hotelId": "ACLONWIL",
      "geoCode": {
        "latitude": 51.51374,
        "longitude": -0.17843
      },
      "address": {
        "countryCode": "GB"
      },
      "lastUpdate": "2023-06-15T09:52:06"
    },
    {
      "chainCode": "AC",
      "iataCode": "LON",
      "dupeId": 700054374,
      "name": "ST GEORGIO",
      "hotelId": "ACLON555",
      "geoCode": {
        "latitude": 51.57751,
        "longitude": 0.06893
      },
      "address": {
        "countryCode": "GB"
      },
      "lastUpdate": "2023-06-15T10:08:52"
    },
    {
      "chainCode": "AL",
      "iataCode": "LON",
      "dupeId": 700153486,
      "name": "ALOFT LONDON EXCEL",
      "hotelId": "ALLON591",
      "geoCode": {
        "latitude": 51.50816,
        "longitude": 0.02646
      },
      "address": {
        "countryCode": "GB"
      },
      "lastUpdate": "2024-05-27T06:04:45"
    },
    {
      "chainCode": "AP",
      "iataCode": "LON",
      "dupeId": 501719946,
      "name": "CHILTERN FIREHOUSE",
      "hotelId": "APLONCHI",
      "geoCode": {
        "latitude": 51.51866,
        "longitude": -0.15511
      },
      "address": {
        "countryCode": "GB"
      },
      "lastUpdate": "2023-06-15T11:12:41"
    },
    {
      "chainCode": "AZ",
      "iataCode": "LON",
      "dupeId": 700020819,
      "name": "CITADINES TRAFALGAR SQ LONDON",
      "hotelId": "AZLONOTR",
      "geoCode": {
        "latitude": 51.50704,
        "longitude": -0.12491
      },
      "address": {
        "countryCode": "GB"
      },
      "lastUpdate": "2023-06-15T10:20:23"
    },
    {
      "chainCode": "AZ",
      "iataCode": "LON",
      "dupeId": 700033622,
      "name": "CITADINES BARBICAN LONDON",
      "hotelId": "AZLONOBA",
      "geoCode": {
        "latitude": 51.52212,
        "longitude": -0.09765
      },
      "address": {
        "countryCode": "GB"
      },
      "lastUpdate": "2023-06-15T10:02:19"
    },
    {
      "chainCode": "AZ",
      "iataCode": "LON",
      "dupeId": 700006008,
      "name": "CITADINES HOLBORN LONDON",
      "hotelId": "AZLONOHO",
      "geoCode": {
        "latitude": 51.51793,
        "longitude": -0.11854
      },
      "address": {
        "countryCode": "GB"
      },
      "lastUpdate": "2023-06-15T10:20:23"
    },
    {
      "chainCode": "AZ",
      "iataCode": "LON",
      "dupeId": 700095622,
      "name": "ST MARKS LONDON",
      "hotelId": "AZLON397",
      "geoCode": {
        "latitude": 51.52866,
        "longitude": -0.09328
      },
      "address": {
        "countryCode": "GB"
      },
      "lastUpdate": "2023-06-15T10:01:00"
    },
    {
      "chainCode": "BC",
      "iataCode": "LON",
      "dupeId": 700189789,
      "name": "AKA MARYLEBONE",
      "hotelId": "BCLONAKS",
      "geoCode": {
        "latitude": 51.5173,
        "longitude": -0.15003
      },
      "address": {
        "countryCode": "GB"
      },
      "lastUpdate": "2023-06-15T10:29:18"
    },
    {
      "chainCode": "BG",
      "iataCode": "LON",
      "dupeId": 502112441,
      "name": "MULTI TEST BULGARI LONDON 003",
      "hotelId": "BGLON003",
      "geoCode": {
        "latitude": 47.32992,
        "longitude": -0.20151
      },
      "address": {
        "countryCode": "FR"
      },
      "lastUpdate": "2023-12-08T09:00:18"
    },
    {
      "chainCode": "BG",
      "iataCode": "LON",
      "dupeId": 502346821,
      "name": "TEST CONTENT",
      "hotelId": "BGLONBGB",
      "geoCode": {
        "latitude": 51.50682,
        "longitude": -0.12612
      },
      "address": {
        "countryCode": "GB"
      },
      "lastUpdate": "2024-05-24T09:00:19"
    },
    {
      "chainCode": "BR",
      "iataCode": "LON",
      "dupeId": 700152304,
      "name": "ST PANCRAS RENAISSANCE LONDON",
      "hotelId": "BRLONPRB",
      "geoCode": {
        "latitude": 51.52575,
        "longitude": -0.13551
      },
      "address": {
        "countryCode": "GB"
      },
      "lastUpdate": "2024-05-20T06:06:05"
    },
    {
      "chainCode": "BW",
      "iataCode": "LON",
      "dupeId": 700012547,
      "name": "BW PREMIER SHAFTESBURY HOTEL",
      "hotelId": "BWLON788",
      "geoCode": {
        "latitude": 51.49093,
        "longitude": -0.28133
      },
      "address": {
        "countryCode": "GB"
      },
      "lastUpdate": "2023-06-15T09:52:22"
    },
    {
      "chainCode": "BW",
      "iataCode": "LON",
      "dupeId": 700057056,
      "name": "BEST WESTERN ATLANTIC HOTEL",
      "hotelId": "BWLON664",
      "geoCode": {
        "latitude": 51.73703,
        "longitude": 0.47366
      },
      "address": {
        "countryCode": "GB"
      },
      "lastUpdate": "2024-05-09T12:39:15"
    },
    {
      "chainCode": "BW",
      "iataCode": "LON",
      "dupeId": 501246168,
      "name": "BEST WESTERN PLUS GRIMS DYKE",
      "hotelId": "BWLON956",
      "geoCode": {
        "latitude": 51.61937,
        "longitude": -0.34426
      },
      "address": {
        "countryCode": "GB"
      },
      "lastUpdate": "2024-04-30T20:37:03"
    },
    {
      "chainCode": "BW",
      "iataCode": "LON",
      "dupeId": 700211622,
      "name": "BEST WESTERN GREATER LONDON HT",
      "hotelId": "BWLON970",
      "geoCode": {
        "latitude": 51.56108,
        "longitude": 0.06984
      },
      "address": {
        "countryCode": "GB"
      },
      "lastUpdate": "2023-06-15T11:06:58"
    },
    {
      "chainCode": "BW",
      "iataCode": "LON",
      "dupeId": 700070704,
      "name": "BEST WESTERN THE CROMWELL",
      "hotelId": "BWLON871",
      "geoCode": {
        "latitude": 51.49522,
        "longitude": -0.18429
      },
      "address": {
        "countryCode": "GB"
      },
      "lastUpdate": "2023-06-15T09:53:25"
    },
    {
      "chainCode": "BW",
      "iataCode": "LON",
      "dupeId": 700013288,
      "name": "BEST WESTERN BURNS KENSINGTON",
      "hotelId": "BWLON801",
      "geoCode": {
        "latitude": 51.49237,
        "longitude": -0.19141
      },
      "address": {
        "countryCode": "GB"
      },
      "lastUpdate": "2024-05-09T12:44:55"
    },
    {
      "chainCode": "BW",
      "iataCode": "LON",
      "dupeId": 700076562,
      "name": "BEST WESTERN THE BOLTONS",
      "hotelId": "BWLON897",
      "geoCode": {
        "latitude": 51.49072,
        "longitude": -0.19338
      },
      "address": {
        "countryCode": "GB"
      },
      "lastUpdate": "2024-05-01T21:08:30"
    },
    {
      "chainCode": "BW",
      "iataCode": "LON",
      "dupeId": 700146270,
      "name": "BW SERAPHINE KENSINGTON OLYMPI",
      "hotelId": "BWLON966",
      "geoCode": {
        "latitude": 51.49913,
        "longitude": -0.19762
      },
      "address": {
        "countryCode": "GB"
      },
      "lastUpdate": "2023-06-15T10:31:23"
    },
    {
      "chainCode": "BW",
      "iataCode": "LON",
      "dupeId": 700116947,
      "name": "BEST WESTERN LONDON HIGHBURY",
      "hotelId": "BWLON939",
      "geoCode": {
        "latitude": 51.56797,
        "longitude": -0.09946
      },
      "address": {
        "countryCode": "GB"
      },
      "lastUpdate": "2024-05-01T21:08:50"
    },
    {
      "chainCode": "BW",
      "iataCode": "LON",
      "dupeId": 700095717,
      "name": "BEST WESTERN VICTORIA PALACE",
      "hotelId": "BWLON873",
      "geoCode": {
        "latitude": 51.49173,
        "longitude": -0.14145
      },
      "address": {
        "countryCode": "GB"
      },
      "lastUpdate": "2024-05-01T21:08:09"
    },
    {
      "chainCode": "BW",
      "iataCode": "LON",
      "dupeId": 700134859,
      "name": "BEST WESTERN  PALM HOTEL",
      "hotelId": "BWLON924",
      "geoCode": {
        "latitude": 51.56388,
        "longitude": -0.20509
      },
      "address": {
        "countryCode": "GB"
      },
      "lastUpdate": "2024-04-30T20:35:58"
    },
    {
      "chainCode": "BW",
      "iataCode": "LON",
      "dupeId": 700058005,
      "name": "BEST WESTERN CHISWICK PALACE",
      "hotelId": "BWLON906",
      "geoCode": {
        "latitude": 51.49255,
        "longitude": -0.25115
      },
      "address": {
        "countryCode": "GB"
      },
      "lastUpdate": "2024-05-01T21:08:36"
    },
    {
      "chainCode": "BW",
      "iataCode": "LON",
      "dupeId": 700048011,
      "name": "BEST WESTERN MORNINGTON HOTEL -LONDON",
      "hotelId": "BWLON187",
      "geoCode": {
        "latitude": 51.51159,
        "longitude": -0.17729
      },
      "address": {
        "countryCode": "GB"
      },
      "lastUpdate": "2024-05-09T12:32:39"
    },
    {
      "chainCode": "BW",
      "iataCode": "LON",
      "dupeId": 700096353,
      "name": "BEST WESTERN REIGATE MANOR HOTEL-REIGATE",
      "hotelId": "BWLON118",
      "geoCode": {
        "latitude": 51.24901,
        "longitude": -0.20299
      },
      "address": {
        "countryCode": "GB"
      },
      "lastUpdate": "2023-06-15T09:52:06"
    },
    {
      "chainCode": "BW",
      "iataCode": "LON",
      "dupeId": 700043693,
      "name": "BEST WESTERN PLUS EPPING FOREST",
      "hotelId": "BWLON981",
      "geoCode": {
        "latitude": 51.60327,
        "longitude": 0.01086
      },
      "address": {
        "countryCode": "GB"
      },
      "lastUpdate": "2023-06-15T11:12:41"
    },
    {
      "chainCode": "BW",
      "iataCode": "LON",
      "dupeId": 700057408,
      "name": "BEST WESTERN MANOR HOTEL",
      "hotelId": "BWLON642",
      "geoCode": {
        "latitude": 51.40958,
        "longitude": 0.38749
      },
      "address": {
        "countryCode": "GB"
      },
      "lastUpdate": "2024-05-09T12:37:36"
    },
    {
      "chainCode": "BW",
      "iataCode": "LON",
      "dupeId": 700048008,
      "name": "DELMERE HOTEL",
      "hotelId": "BWLON683",
      "geoCode": {
        "latitude": 51.51575,
        "longitude": -0.17237
      },
      "address": {
        "countryCode": "GB"
      },
      "lastUpdate": "2024-05-09T12:40:35"
    },
    {
      "chainCode": "BW",
      "iataCode": "LON",
      "dupeId": 700010749,
      "name": "BEST WESTERN SHAFTESBURY PAD",
      "hotelId": "BWLON787",
      "geoCode": {
        "latitude": 51.51358,
        "longitude": -0.18004
      },
      "address": {
        "countryCode": "GB"
      },
      "lastUpdate": "2023-06-15T09:53:25"
    },
    {
      "chainCode": "BW",
      "iataCode": "LON",
      "dupeId": 700013151,
      "name": "BEST WESTERN SWISS COTTAGE HTL",
      "hotelId": "BWLON650",
      "geoCode": {
        "latitude": 51.54439,
        "longitude": -0.17323
      },
      "address": {
        "countryCode": "GB"
      },
      "lastUpdate": "2024-05-01T21:06:10"
    },
    {
      "chainCode": "BW",
      "iataCode": "LON",
      "dupeId": 700147454,
      "name": "BW PLUS SERAPHINE HAMMERSMITH",
      "hotelId": "BWLON953",
      "geoCode": {
        "latitude": 51.4927,
        "longitude": -0.22968
      },
      "address": {
        "countryCode": "GB"
      },
      "lastUpdate": "2023-06-15T10:23:48"
    },
    {
      "chainCode": "BW",
      "iataCode": "LON",
      "dupeId": 700006292,
      "name": "BEST WESTERN CORONA",
      "hotelId": "BWLON799",
      "geoCode": {
        "latitude": 51.48992,
        "longitude": -0.13721
      },
      "address": {
        "countryCode": "GB"
      },
      "lastUpdate": "2024-05-09T12:44:48"
    },
    {
      "chainCode": "BW",
      "iataCode": "LON",
      "dupeId": 700057687,
      "name": "BEST WESTERN WHITE HOUSE HOTEL",
      "hotelId": "BWLON770",
      "geoCode": {
        "latitude": 51.65697,
        "longitude": -0.40203
      },
      "address": {
        "countryCode": "GB"
      },
      "lastUpdate": "2023-06-15T09:53:25"
    },
    {
      "chainCode": "CC",
      "iataCode": "LON",
      "dupeId": 501383017,
      "name": "HARTE AND GARTER HOTEL AND SPA CLARION C",
      "hotelId": "CCLON193",
      "geoCode": {
        "latitude": 51.48268,
        "longitude": -0.608
      },
      "address": {
        "countryCode": "GB"
      },
      "lastUpdate": "2023-06-15T11:08:13"
    },
    {
      "chainCode": "CH",
      "iataCode": "LON",
      "dupeId": 700005995,
      "name": "CHRYSOS HOTEL",
      "hotelId": "CHLONCHR",
      "geoCode": {
        "latitude": 51.51575,
        "longitude": -0.17311000000000002
      },
      "address": {
        "countryCode": "GB"
      },
      "lastUpdate": "2023-06-15T10:06:15"
    },
    {
      "chainCode": "CH",
      "iataCode": "LON",
      "dupeId": 700095680,
      "name": "HOTEL MARBLE ARCH INN",
      "hotelId": "CHLONH32",
      "geoCode": {
        "latitude": 51.5151,
        "longitude": -0.16157
      },
      "address": {
        "countryCode": "GB"
      },
      "lastUpdate": "2023-06-15T09:52:22"
    },
    {
      "chainCode": "CH",
      "iataCode": "LON",
      "dupeId": 501250441,
      "name": "LONDON BRIDGE APARTMENTS",
      "hotelId": "CHLONLBA",
      "geoCode": {
        "latitude": 51.50353,
        "longitude": -0.09225
      },
      "address": {
        "countryCode": "GB"
      },
      "lastUpdate": "2023-06-15T10:34:01"
    },
    {
      "chainCode": "CH",
      "iataCode": "LON",
      "dupeId": 501284448,
      "name": "WHITECHAPEL CENTRAL APARTMENTS",
      "hotelId": "CHLONWHI",
      "geoCode": {
        "latitude": 51.51551,
        "longitude": -0.06755
      },
      "address": {
        "countryCode": "GB"
      },
      "lastUpdate": "2023-06-15T11:06:58"
    },
    {
      "chainCode": "CH",
      "iataCode": "LON",
      "dupeId": 700095549,
      "name": "CAMELIA HOTEL-ESSEX",
      "hotelId": "CHLONCAM",
      "geoCode": {
        "latitude": 51.53028,
        "longitude": 0.74092
      },
      "address": {
        "countryCode": "GB"
      },
      "lastUpdate": "2023-06-15T10:30:52"
    },
    {
      "chainCode": "CI",
      "iataCode": "LON",
      "dupeId": 700058115,
      "name": "COMFORT HOTEL FINCHLEY",
      "hotelId": "CILON095",
      "geoCode": {
        "latitude": 51.60586,
        "longitude": -0.17457
      },
      "address": {
        "countryCode": "GB"
      },
      "lastUpdate": "2023-06-15T09:52:22"
    },
    {
      "chainCode": "CI",
      "iataCode": "LON",
      "dupeId": 700029580,
      "name": "COMFORT INN VICTORIA",
      "hotelId": "CILON113",
      "geoCode": {
        "latitude": 51.49315,
        "longitude": -0.14424
      },
      "address": {
        "countryCode": "GB"
      },
      "lastUpdate": "2023-06-15T09:53:25"
    },
    {
      "chainCode": "CI",
      "iataCode": "LON",
      "dupeId": 700006155,
      "name": "COMFORT INN ST PANCRAS - KINGS CROSS",
      "hotelId": "CILON049",
      "geoCode": {
        "latitude": 51.53013,
        "longitude": -0.1209
      },
      "address": {
        "countryCode": "GB"
      },
      "lastUpdate": "2023-06-15T09:53:25"
    },
    {
      "chainCode": "CI",
      "iataCode": "LON",
      "dupeId": 700056459,
      "name": "COMFORT INN AND SUITES KINGS CROSS ST. P",
      "hotelId": "CILON143",
      "geoCode": {
        "latitude": 51.52902,
        "longitude": -0.12358
      },
      "address": {
        "countryCode": "GB"
      },
      "lastUpdate": "2023-06-15T09:52:22"
    },
    {
      "chainCode": "CI",
      "iataCode": "LON",
      "dupeId": 700137463,
      "name": "COMFORT HOTEL LUTON",
      "hotelId": "CILON183",
      "geoCode": {
        "latitude": 51.8827,
        "longitude": -0.41893
      },
      "address": {
        "countryCode": "GB"
      },
      "lastUpdate": "2023-06-15T10:12:32"
    },
    {
      "chainCode": "CN",
      "iataCode": "LON",
      "dupeId": 700153823,
      "name": "CONRAD LONDON ST JAMES",
      "hotelId": "CNLON944",
      "geoCode": {
        "latitude": 51.49982,
        "longitude": -0.13311
      },
      "address": {
        "countryCode": "GB"
      },
      "lastUpdate": "2023-06-15T11:11:26"
    },
    {
      "chainCode": "CP",
      "iataCode": "LON",
      "dupeId": 700023644,
      "name": "CROWNE PLAZA KENSINGTON",
      "hotelId": "CPLON268",
      "geoCode": {
        "latitude": 51.49496,
        "longitude": -0.18393
      },
      "address": {
        "countryCode": "GB"
      },
      "lastUpdate": "2023-06-15T10:14:06"
    },
    {
      "chainCode": "CQ",
      "iataCode": "LON",
      "dupeId": 700029582,
      "name": "CLUB QUARTERS ST. PAULS",
      "hotelId": "CQLON498",
      "geoCode": {
        "latitude": 51.51378,
        "longitude": -0.1013
      },
      "address": {
        "countryCode": "GB"
      },
      "lastUpdate": "2023-06-15T09:52:22"
    },
    {
      "chainCode": "CQ",
      "iataCode": "LON",
      "dupeId": 700096295,
      "name": "CLUB QUARTERS TRAFALGAR SQUARE",
      "hotelId": "CQLON473",
      "geoCode": {
        "latitude": 51.50733,
        "longitude": -0.12734
      },
      "address": {
        "countryCode": "GB"
      },
      "lastUpdate": "2023-06-15T09:52:22"
    },
    {
      "chainCode": "CX",
      "iataCode": "LON",
      "dupeId": 502039102,
      "name": "MULTI TEST CARLSON HOTELS",
      "hotelId": "CXLONXXX",
      "geoCode": {
        "latitude": 51.48192,
        "longitude": -0.11351
      },
      "address": {
        "countryCode": "GB"
      },
      "lastUpdate": "2023-06-15T11:23:03"
    },
    {
      "chainCode": "DC",
      "iataCode": "LON",
      "dupeId": 700174486,
      "name": "45 PARK LANE",
      "hotelId": "DCLON45P",
      "geoCode": {
        "latitude": 51.50761,
        "longitude": -0.15336
      },
      "address": {
        "countryCode": "GB"
      },
      "lastUpdate": "2023-06-15T10:18:49"
    },
    {
      "chainCode": "DH",
      "iataCode": "LON",
      "dupeId": 700189821,
      "name": "SHANGRI-LA HOTEL AT THE SHARD, LONDON",
      "hotelId": "DHLONBFG",
      "geoCode": {
        "latitude": 51.5034,
        "longitude": -0.0852
      },
      "address": {
        "countryCode": "GB"
      },
      "lastUpdate": "2023-06-15T11:08:24"
    },
    {
      "chainCode": "DH",
      "iataCode": "LON",
      "dupeId": 700006008,
      "name": "CITADINES PRESTIGE HOLBORN - COVENT GARD",
      "hotelId": "DHLONBDO",
      "geoCode": {
        "latitude": 51.51795,
        "longitude": -0.11828
      },
      "address": {
        "countryCode": "GB"
      },
      "lastUpdate": "2023-06-15T10:29:34"
    },
    {
      "chainCode": "DI",
      "iataCode": "LON",
      "dupeId": 700059403,
      "name": "DAYS INN SOUTH MIMMS M25",
      "hotelId": "DILON568",
      "geoCode": {
        "latitude": 51.68682,
        "longitude": -0.22132
      },
      "address": {
        "countryCode": "GB"
      },
      "lastUpdate": "2023-06-15T09:59:11"
    },
    {
      "chainCode": "DI",
      "iataCode": "LON",
      "dupeId": 700176105,
      "name": "DAYS INN MAIDSTONE",
      "hotelId": "DILON510",
      "geoCode": {
        "latitude": 51.26665,
        "longitude": 0.61385
      },
      "address": {
        "countryCode": "GB"
      },
      "lastUpdate": "2024-05-29T09:00:19"
    },
    {
      "chainCode": "DI",
      "iataCode": "LON",
      "dupeId": 700018136,
      "name": "DAYS HOTEL LONDON- WATERLOO",
      "hotelId": "DILON578",
      "geoCode": {
        "latitude": 51.49685,
        "longitude": -0.11214
      },
      "address": {
        "countryCode": "GB"
      },
      "lastUpdate": "2023-06-15T09:56:50"
    },
    {
      "chainCode": "DS",
      "iataCode": "LON",
      "dupeId": 501420958,
      "name": "HAM YARD HOTEL",
      "hotelId": "DSLONHYH",
      "geoCode": {
        "latitude": 51.51108,
        "longitude": -0.1345
      },
      "address": {
        "countryCode": "GB"
      },
      "lastUpdate": "2023-06-15T11:08:45"
    },
    {
      "chainCode": "DS",
      "iataCode": "LON",
      "dupeId": 700144341,
      "name": "TOWN HALL HOTEL AND APARTMENTS",
      "hotelId": "DSLONTTH",
      "geoCode": {
        "latitude": 51.53055,
        "longitude": -0.0562
      },
      "address": {
        "countryCode": "GB"
      },
      "lastUpdate": "2023-06-15T10:17:46"
    },
    {
      "chainCode": "DS",
      "iataCode": "LON",
      "dupeId": 700095472,
      "name": "HAYMARKET HOTEL",
      "hotelId": "DSLONHAY",
      "geoCode": {
        "latitude": 51.50839,
        "longitude": -0.13106
      },
      "address": {
        "countryCode": "GB"
      },
      "lastUpdate": "2023-06-15T09:53:57"
    },
    {
      "chainCode": "DS",
      "iataCode": "LON",
      "dupeId": 700174500,
      "name": "COVENT GARDEN HOTEL",
      "hotelId": "DSLON499",
      "geoCode": {
        "latitude": 51.51442,
        "longitude": -0.12692
      },
      "address": {
        "countryCode": "GB"
      },
      "lastUpdate": "2023-06-15T09:56:50"
    },
    {
      "chainCode": "DS",
      "iataCode": "LON",
      "dupeId": 700095536,
      "name": "NUMBER SIXTEEN",
      "hotelId": "DSLON823",
      "geoCode": {
        "latitude": 51.49301,
        "longitude": -0.17572
      },
      "address": {
        "countryCode": "GB"
      },
      "lastUpdate": "2023-06-15T10:09:08"
    },
    {
      "chainCode": "DS",
      "iataCode": "LON",
      "dupeId": 700174528,
      "name": "SOUTH PLACE HOTEL",
      "hotelId": "DSLONSPH",
      "geoCode": {
        "latitude": 51.51914,
        "longitude": -0.08704
      },
      "address": {
        "countryCode": "GB"
      },
      "lastUpdate": "2023-06-15T10:26:26"
    },
    {
      "chainCode": "DS",
      "iataCode": "LON",
      "dupeId": 700095637,
      "name": "ECCLESTON SQUARE HOTEL",
      "hotelId": "DSLONELI",
      "geoCode": {
        "latitude": 51.49128,
        "longitude": -0.14565
      },
      "address": {
        "countryCode": "GB"
      },
      "lastUpdate": "2023-06-15T09:52:54"
    },
    {
      "chainCode": "DS",
      "iataCode": "LON",
      "dupeId": 700025190,
      "name": "DORSET SQUARE",
      "hotelId": "DSLONDOR",
      "geoCode": {
        "latitude": 51.52258,
        "longitude": -0.16021
      },
      "address": {
        "countryCode": "GB"
      },
      "lastUpdate": "2023-06-15T10:20:55"
    },
    {
      "chainCode": "DS",
      "iataCode": "LON",
      "dupeId": 700039684,
      "name": "THE SOHO HOTEL",
      "hotelId": "DSLONSOH",
      "geoCode": {
        "latitude": 51.51409,
        "longitude": -0.13357
      },
      "address": {
        "countryCode": "GB"
      },
      "lastUpdate": "2023-06-15T09:54:13"
    },
    {
      "chainCode": "DS",
      "iataCode": "LON",
      "dupeId": 700174514,
      "name": "LA SUITE WEST",
      "hotelId": "DSLONLSW",
      "geoCode": {
        "latitude": 51.51247,
        "longitude": -0.18664
      },
      "address": {
        "countryCode": "GB"
      },
      "lastUpdate": "2023-06-15T10:15:56"
    },
    {
      "chainCode": "EB",
      "iataCode": "LON",
      "dupeId": 700013278,
      "name": "THE LONDON EDITION",
      "hotelId": "EBLONEBE",
      "geoCode": {
        "latitude": 51.51713,
        "longitude": -0.13635
      },
      "address": {
        "countryCode": "GB"
      },
      "lastUpdate": "2024-05-20T06:03:06"
    },
    {
      "chainCode": "ED",
      "iataCode": "LON",
      "dupeId": 502185711,
      "name": "ED TEST PROPERTY1",
      "hotelId": "EDLONDER",
      "geoCode": {
        "latitude": 51.50642,
        "longitude": -0.1272
      },
      "address": {
        "countryCode": "GB"
      },
      "lastUpdate": "2023-06-15T10:30:05"
    },
    {
      "chainCode": "EP",
      "iataCode": "LON",
      "dupeId": 501910133,
      "name": "ROYAL FOUNDATION ST KATHARINE",
      "hotelId": "EPLONRFK",
      "geoCode": {
        "latitude": 51.51131,
        "longitude": -0.04128
      },
      "address": {
        "countryCode": "GB"
      },
      "lastUpdate": "2023-06-15T11:20:44"
    },
    {
      "chainCode": "EP",
      "iataCode": "LON",
      "dupeId": 700075080,
      "name": "54 FIFTY FOUR BOUTIQUE HOTEL",
      "hotelId": "EPLONQUE",
      "geoCode": {
        "latitude": 51.49639,
        "longitude": -0.17929
      },
      "address": {
        "countryCode": "GB"
      },
      "lastUpdate": "2023-06-15T10:15:40"
    },
    {
      "chainCode": "EP",
      "iataCode": "LON",
      "dupeId": 700095608,
      "name": "SAN DOMENICO HOUSE",
      "hotelId": "EPLONSLO",
      "geoCode": {
        "latitude": 51.49186,
        "longitude": -0.16178
      },
      "address": {
        "countryCode": "GB"
      },
      "lastUpdate": "2023-06-15T10:17:14"
    },
    {
      "chainCode": "FG",
      "iataCode": "LON",
      "dupeId": 700076489,
      "name": "ALBANY HOTEL-EASTBOURNE",
      "hotelId": "FGLONALB",
      "geoCode": {
        "latitude": 50.76387,
        "longitude": 0.28763
      },
      "address": {
        "countryCode": "GB"
      },
      "lastUpdate": "2023-06-15T09:56:18"
    },
    {
      "chainCode": "FG",
      "iataCode": "LON",
      "dupeId": 700032333,
      "name": "LANGORF HOTEL",
      "hotelId": "FGLONLAN",
      "geoCode": {
        "latitude": 51.55111,
        "longitude": -0.18021
      },
      "address": {
        "countryCode": "GB"
      },
      "lastUpdate": "2023-06-15T10:28:47"
    },
    {
      "chainCode": "FG",
      "iataCode": "LON",
      "dupeId": 700031539,
      "name": "ASTOR COURT HOTEL",
      "hotelId": "FGLONAST",
      "geoCode": {
        "latitude": 51.52028,
        "longitude": -0.14282
      },
      "address": {
        "countryCode": "GB"
      },
      "lastUpdate": "2023-06-15T09:47:40"
    },
    {
      "chainCode": "FG",
      "iataCode": "LON",
      "dupeId": 700095587,
      "name": "TOPHAMS HOTEL BELGRAVIA",
      "hotelId": "FGLONUTB",
      "geoCode": {
        "latitude": 51.49554,
        "longitude": -0.14818
      },
      "address": {
        "countryCode": "GB"
      },
      "lastUpdate": "2023-06-15T11:08:56"
    },
    {
      "chainCode": "FG",
      "iataCode": "LON",
      "dupeId": 700170994,
      "name": "STUDIOS 2 LET SERVICED APARTMENTS",
      "hotelId": "FGLONS2L",
      "geoCode": {
        "latitude": 51.51344,
        "longitude": -0.18037
      },
      "address": {
        "countryCode": "GB"
      },
      "lastUpdate": "2023-06-15T10:01:01"
    },
    {
      "chainCode": "FG",
      "iataCode": "LON",
      "dupeId": 700095639,
      "name": "NOTTINGHAM PLACE HOTEL LONDON",
      "hotelId": "FGLONPRH",
      "geoCode": {
        "latitude": 51.52213,
        "longitude": -0.1535
      },
      "address": {
        "countryCode": "GB"
      },
      "lastUpdate": "2023-06-15T10:30:21"
    },
    {
      "chainCode": "FG",
      "iataCode": "LON",
      "dupeId": 501401823,
      "name": "THE GAINSBOROUGH HOTEL",
      "hotelId": "FGLON423",
      "geoCode": {
        "latitude": 51.49507,
        "longitude": -0.17721
      },
      "address": {
        "countryCode": "GB"
      },
      "lastUpdate": "2023-06-15T11:05:54"
    },
    {
      "chainCode": "FI",
      "iataCode": "LON",
      "dupeId": 700174506,
      "name": "FRASER RESIDENCE MONUMENT",
      "hotelId": "FILONFRM",
      "geoCode": {
        "latitude": 51.51016,
        "longitude": -0.0844
      },
      "address": {
        "countryCode": "GB"
      },
      "lastUpdate": "2023-06-15T11:13:24"
    },
    {
      "chainCode": "FI",
      "iataCode": "LON",
      "dupeId": 700174505,
      "name": "FRASER RESIDENCE BLACKFRIARS",
      "hotelId": "FILONJQP",
      "geoCode": {
        "latitude": 51.51295,
        "longitude": -0.10223
      },
      "address": {
        "countryCode": "GB"
      },
      "lastUpdate": "2023-06-15T11:12:52"
    },
    {
      "chainCode": "FI",
      "iataCode": "LON",
      "dupeId": 700176594,
      "name": "FRASER RESIDENCE CITY",
      "hotelId": "FILONFRA",
      "geoCode": {
        "latitude": 51.51033,
        "longitude": -0.08411
      },
      "address": {
        "countryCode": "GB"
      },
      "lastUpdate": "2023-06-15T11:11:47"
    },
    {
      "chainCode": "FI",
      "iataCode": "LON",
      "dupeId": 700174507,
      "name": "FRASER SUITES KENSINGTON",
      "hotelId": "FILONKEN",
      "geoCode": {
        "latitude": 51.49497,
        "longitude": -0.18103
      },
      "address": {
        "countryCode": "GB"
      },
      "lastUpdate": "2023-06-15T11:12:52"
    },
    {
      "chainCode": "FI",
      "iataCode": "LON",
      "dupeId": 700174504,
      "name": "FRASER RESIDENCE BISHOPSGATE",
      "hotelId": "FILONMIN",
      "geoCode": {
        "latitude": 51.51835,
        "longitude": -0.07832
      },
      "address": {
        "countryCode": "GB"
      },
      "lastUpdate": "2023-06-15T11:13:13"
    },
    {
      "chainCode": "FI",
      "iataCode": "LON",
      "dupeId": 700054168,
      "name": "FRASER PLACE CANARY WHARF",
      "hotelId": "FILON767",
      "geoCode": {
        "latitude": 51.50499,
        "longitude": -0.01118
      },
      "address": {
        "countryCode": "GB"
      },
      "lastUpdate": "2023-06-15T11:13:02"
    },
    {
      "chainCode": "FS",
      "iataCode": "LON",
      "dupeId": 700021300,
      "name": "FOUR SEASONS LONDON AT PARK LANE",
      "hotelId": "FSLON509",
      "geoCode": {
        "latitude": 51.50434,
        "longitude": -0.14993
      },
      "address": {
        "countryCode": "GB"
      },
      "lastUpdate": "2023-06-15T09:53:57"
    },
    {
      "chainCode": "GF",
      "iataCode": "LON",
      "dupeId": 700059137,
      "name": "GRANGE BRACKNELL",
      "hotelId": "GFLONBRA",
      "geoCode": {
        "latitude": 51.41816,
        "longitude": -0.74902
      },
      "address": {
        "countryCode": "GB"
      },
      "lastUpdate": "2023-06-15T09:54:29"
    },
    {
      "chainCode": "GF",
      "iataCode": "LON",
      "dupeId": 700150356,
      "name": "CLARENDON",
      "hotelId": "GFLONCLD",
      "geoCode": {
        "latitude": 51.51967,
        "longitude": -0.12371
      },
      "address": {
        "countryCode": "GB"
      },
      "lastUpdate": "2023-06-15T09:58:08"
    },
    {
      "chainCode": "GF",
      "iataCode": "LON",
      "dupeId": 700095482,
      "name": "GRANGE ST. PAULS",
      "hotelId": "GFLONRAN",
      "geoCode": {
        "latitude": 51.51228,
        "longitude": -0.09906
      },
      "address": {
        "countryCode": "GB"
      },
      "lastUpdate": "2023-06-15T09:58:55"
    },
    {
      "chainCode": "GF",
      "iataCode": "LON",
      "dupeId": 700031301,
      "name": "GRANGE WHITE HALL",
      "hotelId": "GFLONWHI",
      "geoCode": {
        "latitude": 51.5191,
        "longitude": -0.1246
      },
      "address": {
        "countryCode": "GB"
      },
      "lastUpdate": "2023-06-15T09:53:10"
    },
    {
      "chainCode": "GF",
      "iataCode": "LON",
      "dupeId": 700095589,
      "name": "BEAUCHAMP",
      "hotelId": "GFLONAMP",
      "geoCode": {
        "latitude": 51.52083,
        "longitude": -0.12495
      },
      "address": {
        "countryCode": "GB"
      },
      "lastUpdate": "2023-06-15T10:10:11"
    },
    {
      "chainCode": "GF",
      "iataCode": "LON",
      "dupeId": 700148189,
      "name": "GRANGE TOWER BRIDGE HOTEL",
      "hotelId": "GFLONTWR",
      "geoCode": {
        "latitude": 51.51139,
        "longitude": -0.07227
      },
      "address": {
        "countryCode": "GB"
      },
      "lastUpdate": "2023-06-15T09:59:27"
    },
    {
      "chainCode": "GF",
      "iataCode": "LON",
      "dupeId": 700013347,
      "name": "GRANGE HOLBORN",
      "hotelId": "GFLONHOL",
      "geoCode": {
        "latitude": 51.51906,
        "longitude": -0.12102
      },
      "address": {
        "countryCode": "GB"
      },
      "lastUpdate": "2023-06-15T09:56:50"
    },
    {
      "chainCode": "GF",
      "iataCode": "LON",
      "dupeId": 700013348,
      "name": "GRANGE ROCHESTER",
      "hotelId": "GFLONROC",
      "geoCode": {
        "latitude": 51.49405,
        "longitude": -0.13622
      },
      "address": {
        "countryCode": "GB"
      },
      "lastUpdate": "2023-06-15T09:54:13"
    },
    {
      "chainCode": "GF",
      "iataCode": "LON",
      "dupeId": 700027227,
      "name": "GRANGE BLOOMS TOWNHOUSE",
      "hotelId": "GFLONTWN",
      "geoCode": {
        "latitude": 51.51992,
        "longitude": -0.12562
      },
      "address": {
        "countryCode": "GB"
      },
      "lastUpdate": "2023-06-15T09:58:08"
    },
    {
      "chainCode": "GF",
      "iataCode": "LON",
      "dupeId": 700039654,
      "name": "WELLINGTON",
      "hotelId": "GFLONWLL",
      "geoCode": {
        "latitude": 51.49373,
        "longitude": -0.13338
      },
      "address": {
        "countryCode": "GB"
      },
      "lastUpdate": "2023-06-15T09:53:10"
    },
    {
      "chainCode": "GF",
      "iataCode": "LON",
      "dupeId": 700021510,
      "name": "GRANGE CITY",
      "hotelId": "GFLONCIT",
      "geoCode": {
        "latitude": 51.51096,
        "longitude": -0.0767
      },
      "address": {
        "countryCode": "GB"
      },
      "lastUpdate": "2023-06-15T09:56:50"
    },
    {
      "chainCode": "GZ",
      "iataCode": "LON",
      "dupeId": 700076427,
      "name": "THE CROWN HOTEL",
      "hotelId": "GZLONTCI",
      "geoCode": {
        "latitude": 51.6663,
        "longitude": -0.6165
      },
      "address": {
        "countryCode": "GB"
      },
      "lastUpdate": "2023-06-15T10:36:06"
    },
    {
      "chainCode": "GZ",
      "iataCode": "LON",
      "dupeId": 700059981,
      "name": "MALMAISON LONDON",
      "hotelId": "GZLONMAL",
      "geoCode": {
        "latitude": 51.52091,
        "longitude": -0.10026
      },
      "address": {
        "countryCode": "GB"
      },
      "lastUpdate": "2023-06-15T10:30:21"
    },
    {
      "chainCode": "GZ",
      "iataCode": "LON",
      "dupeId": 700061854,
      "name": "THE ROOKERY HOTEL",
      "hotelId": "GZLON689",
      "geoCode": {
        "latitude": 51.52034,
        "longitude": -0.10223
      },
      "address": {
        "countryCode": "GB"
      },
      "lastUpdate": "2023-06-15T10:34:16"
    },
    {
      "chainCode": "GZ",
      "iataCode": "LON",
      "dupeId": 700095709,
      "name": "HAZLITTS HOTEL",
      "hotelId": "GZLONHAZ",
      "geoCode": {
        "latitude": 51.51434,
        "longitude": -0.13185
      },
      "address": {
        "countryCode": "GB"
      },
      "lastUpdate": "2023-06-15T10:35:19"
    },
    {
      "chainCode": "HA",
      "iataCode": "LON",
      "dupeId": 700019940,
      "name": "THE ROYAL CAMBRIDGE",
      "hotelId": "HALONCAM",
      "geoCode": {
        "latitude": 51.51577,
        "longitude": -0.17239
      },
      "address": {
        "countryCode": "GB"
      },
      "lastUpdate": "2023-06-15T11:08:34"
    },
    {
      "chainCode": "HA",
      "iataCode": "LON",
      "dupeId": 700015887,
      "name": "HENRY VIII HOTEL",
      "hotelId": "HALONHEN",
      "geoCode": {
        "latitude": 51.51262,
        "longitude": -0.18341
      },
      "address": {
        "countryCode": "GB"
      },
      "lastUpdate": "2023-06-15T09:52:07"
    },
    {
      "chainCode": "HA",
      "iataCode": "LON",
      "dupeId": 700024808,
      "name": "GRAND PLAZA APARTMENTS",
      "hotelId": "HALONGPA",
      "geoCode": {
        "latitude": 51.51357,
        "longitude": -0.19141
      },
      "address": {
        "countryCode": "GB"
      },
      "lastUpdate": "2023-06-15T09:56:34"
    },
    {
      "chainCode": "HA",
      "iataCode": "LON",
      "dupeId": 700132055,
      "name": "THE JADE HOTEL",
      "hotelId": "HALON300",
      "geoCode": {
        "latitude": 51.49374,
        "longitude": -0.19146
      },
      "address": {
        "countryCode": "GB"
      },
      "lastUpdate": "2023-06-15T11:11:15"
    },
    {
      "chainCode": "HA",
      "iataCode": "LON",
      "dupeId": 501416258,
      "name": "FALCON WHARF APARTMENTS",
      "hotelId": "HALONFAL",
      "geoCode": {
        "latitude": 51.47031,
        "longitude": -0.17787
      },
      "address": {
        "countryCode": "GB"
      },
      "lastUpdate": "2023-06-15T11:09:28"
    },
    {
      "chainCode": "HI",
      "iataCode": "LON",
      "dupeId": 700024237,
      "name": "HOLIDAY INN LONDON BRENT CROSS",
      "hotelId": "HILOND41",
      "geoCode": {
        "latitude": 51.57165,
        "longitude": -0.22797
      },
      "address": {
        "countryCode": "GB"
      },
      "lastUpdate": "2023-06-15T09:52:39"
    },
    {
      "chainCode": "HI",
      "iataCode": "LON",
      "dupeId": 700039541,
      "name": "HOLIDAY INN BRENTWOOD M25 JCT",
      "hotelId": "HILON1ED",
      "geoCode": {
        "latitude": 51.61072,
        "longitude": 0.26871
      },
      "address": {
        "countryCode": "GB"
      },
      "lastUpdate": "2023-06-15T09:52:54"
    },
    {
      "chainCode": "HI",
      "iataCode": "LON",
      "dupeId": 700008323,
      "name": "HOLIDAY INN KINGS-CROSS",
      "hotelId": "HILON865",
      "geoCode": {
        "latitude": 51.52638,
        "longitude": -0.11373
      },
      "address": {
        "countryCode": "GB"
      },
      "lastUpdate": "2023-06-15T09:53:10"
    },
    {
      "chainCode": "HI",
      "iataCode": "LON",
      "dupeId": 700045274,
      "name": "HOLIDAY INN EXPRESS CROYDON",
      "hotelId": "HILON50D",
      "geoCode": {
        "latitude": 51.3736,
        "longitude": -0.10218000000000001
      },
      "address": {
        "countryCode": "GB"
      },
      "lastUpdate": "2023-06-15T09:52:07"
    },
    {
      "chainCode": "HI",
      "iataCode": "LON",
      "dupeId": 501728584,
      "name": "HOLIDAY INN EXP EXCEL",
      "hotelId": "HILON98B",
      "geoCode": {
        "latitude": 51.50831,
        "longitude": 0.04178
      },
      "address": {
        "countryCode": "GB"
      },
      "lastUpdate": "2023-06-15T09:52:07"
    },
    {
      "chainCode": "HI",
      "iataCode": "LON",
      "dupeId": 700029591,
      "name": "HOLIDAY INN EXP SOUTHWARK ST",
      "hotelId": "HILON005",
      "geoCode": {
        "latitude": 51.5061,
        "longitude": -0.10144
      },
      "address": {
        "countryCode": "GB"
      },
      "lastUpdate": "2023-06-15T09:53:10"
    },
    {
      "chainCode": "HI",
      "iataCode": "LON",
      "dupeId": 700024236,
      "name": "HOLIDAY INN EXP VICTORIA STN",
      "hotelId": "HILONBE3",
      "geoCode": {
        "latitude": 51.48985,
        "longitude": -0.13705
      },
      "address": {
        "countryCode": "GB"
      },
      "lastUpdate": "2024-05-29T09:00:20"
    },
    {
      "chainCode": "HI",
      "iataCode": "LON",
      "dupeId": 700153872,
      "name": "HOLIDAY INN STRATFORD CITY",
      "hotelId": "HILON329",
      "geoCode": {
        "latitude": 51.55219,
        "longitude": 0.0258
      },
      "address": {
        "countryCode": "GB"
      },
      "lastUpdate": "2023-06-15T10:12:32"
    },
    {
      "chainCode": "HI",
      "iataCode": "LON",
      "dupeId": 700070372,
      "name": "CONCORDE OPERA PARIS OPERA PARIS",
      "hotelId": "HILON638",
      "geoCode": {
        "latitude": 51.54846,
        "longitude": -0.18098
      },
      "address": {
        "countryCode": "GB"
      },
      "lastUpdate": "2023-06-15T09:53:26"
    },
    {
      "chainCode": "HI",
      "iataCode": "LON",
      "dupeId": 700153871,
      "name": "HOLIDAY INN COMMERCIAL ROAD",
      "hotelId": "HILONC51",
      "geoCode": {
        "latitude": 51.51466,
        "longitude": -0.05926
      },
      "address": {
        "countryCode": "GB"
      },
      "lastUpdate": "2023-06-15T10:07:02"
    },
    {
      "chainCode": "HI",
      "iataCode": "LON",
      "dupeId": 700008340,
      "name": "HOLIDAY INN MAYFAIR",
      "hotelId": "HILON9D3",
      "geoCode": {
        "latitude": 51.50781,
        "longitude": -0.14284
      },
      "address": {
        "countryCode": "GB"
      },
      "lastUpdate": "2023-06-15T09:53:10"
    },
    {
      "chainCode": "HI",
      "iataCode": "LON",
      "dupeId": 700029599,
      "name": "HOLIDAY INN WEST",
      "hotelId": "HILONFD4",
      "geoCode": {
        "latitude": 51.52099,
        "longitude": -0.26298
      },
      "address": {
        "countryCode": "GB"
      },
      "lastUpdate": "2023-06-15T10:16:13"
    },
    {
      "chainCode": "HI",
      "iataCode": "LON",
      "dupeId": 700020449,
      "name": "HOLIDAY INN OXFORD CIRCUS",
      "hotelId": "HILON6AA",
      "geoCode": {
        "latitude": 51.51697,
        "longitude": -0.1492
      },
      "address": {
        "countryCode": "GB"
      },
      "lastUpdate": "2023-06-15T09:53:26"
    },
    {
      "chainCode": "HI",
      "iataCode": "LON",
      "dupeId": 700095706,
      "name": "HOLIDAY INN EXP GOLDERS GREEN",
      "hotelId": "HILON72A",
      "geoCode": {
        "latitude": 51.59024,
        "longitude": -0.1993
      },
      "address": {
        "countryCode": "GB"
      },
      "lastUpdate": "2023-06-15T10:08:37"
    },
    {
      "chainCode": "HI",
      "iataCode": "LON",
      "dupeId": 700008320,
      "name": "HOLIDAY INN KENSINGTON FORUM",
      "hotelId": "HILONE8A",
      "geoCode": {
        "latitude": 51.49422,
        "longitude": -0.18511
      },
      "address": {
        "countryCode": "GB"
      },
      "lastUpdate": "2023-06-15T09:53:26"
    },
    {
      "chainCode": "HI",
      "iataCode": "LON",
      "dupeId": 700027258,
      "name": "HOLIDAY INN LONDON ELSTREE",
      "hotelId": "HILONELS",
      "geoCode": {
        "latitude": 51.64355,
        "longitude": -0.25477
      },
      "address": {
        "countryCode": "GB"
      },
      "lastUpdate": "2023-06-15T09:53:10"
    },
    {
      "chainCode": "HI",
      "iataCode": "LON",
      "dupeId": 700022424,
      "name": "HOLIDAY INN EXP GREENWICH",
      "hotelId": "HILON542",
      "geoCode": {
        "latitude": 51.49039,
        "longitude": 0.01907
      },
      "address": {
        "countryCode": "GB"
      },
      "lastUpdate": "2023-06-15T09:52:23"
    },
    {
      "chainCode": "HI",
      "iataCode": "LON",
      "dupeId": 700050307,
      "name": "HOLIDAY INN EXP LONDON-NEWBURY",
      "hotelId": "HILON02A",
      "geoCode": {
        "latitude": 51.57609,
        "longitude": 0.03988
      },
      "address": {
        "countryCode": "GB"
      },
      "lastUpdate": "2023-06-15T09:52:07"
    },
    {
      "chainCode": "HI",
      "iataCode": "LON",
      "dupeId": 700032802,
      "name": "HOLIDAY INN SUTTON",
      "hotelId": "HILON239",
      "geoCode": {
        "latitude": 51.36221,
        "longitude": -0.19621
      },
      "address": {
        "countryCode": "GB"
      },
      "lastUpdate": "2023-06-15T09:53:26"
    },
    {
      "chainCode": "HI",
      "iataCode": "LON",
      "dupeId": 501686633,
      "name": "HOLIDAY INN WATFORD JUNCTION",
      "hotelId": "HILOND11",
      "geoCode": {
        "latitude": 51.6627,
        "longitude": -0.39716
      },
      "address": {
        "countryCode": "GB"
      },
      "lastUpdate": "2023-06-15T11:12:41"
    },
    {
      "chainCode": "HI",
      "iataCode": "LON",
      "dupeId": 700028152,
      "name": "HOLIDAY INN CAMDEN LOCK",
      "hotelId": "HILON257",
      "geoCode": {
        "latitude": 51.54023,
        "longitude": -0.1456
      },
      "address": {
        "countryCode": "GB"
      },
      "lastUpdate": "2023-06-15T09:53:10"
    },
    {
      "chainCode": "HI",
      "iataCode": "LON",
      "dupeId": 700028149,
      "name": "HOLIDAY INN EXP PARK ROYAL",
      "hotelId": "HILOND39",
      "geoCode": {
        "latitude": 51.52147,
        "longitude": -0.26354
      },
      "address": {
        "countryCode": "GB"
      },
      "lastUpdate": "2023-06-15T09:52:54"
    },
    {
      "chainCode": "HI",
      "iataCode": "LON",
      "dupeId": 700096153,
      "name": "HOLIDAY INN EXP EPSOM DOWNS",
      "hotelId": "HILONAE1",
      "geoCode": {
        "latitude": 51.3107,
        "longitude": -0.26361
      },
      "address": {
        "countryCode": "GB"
      },
      "lastUpdate": "2023-06-15T09:44:31"
    },
    {
      "chainCode": "HI",
      "iataCode": "LON",
      "dupeId": 700058859,
      "name": "HOLIDAY INN EXP WIMBLEDON S",
      "hotelId": "HILONC9A",
      "geoCode": {
        "latitude": 51.42429,
        "longitude": -0.21578
      },
      "address": {
        "countryCode": "GB"
      },
      "lastUpdate": "2023-06-15T09:53:26"
    },
    {
      "chainCode": "HL",
      "iataCode": "LON",
      "dupeId": 700007240,
      "name": "HILTON LONDON EUSTON",
      "hotelId": "HLLON213",
      "geoCode": {
        "latitude": 51.52689,
        "longitude": -0.13028
      },
      "address": {
        "countryCode": "GB"
      },
      "lastUpdate": "2023-06-15T09:52:07"
    },
    {
      "chainCode": "HL",
      "iataCode": "LON",
      "dupeId": 700040419,
      "name": "DOUBLETREE LONDON VICTORIA",
      "hotelId": "HLLON834",
      "geoCode": {
        "latitude": 51.494,
        "longitude": -0.14338
      },
      "address": {
        "countryCode": "GB"
      },
      "lastUpdate": "2023-06-15T09:51:20"
    },
    {
      "chainCode": "HL",
      "iataCode": "LON",
      "dupeId": 700027723,
      "name": "THE TRAFALGAR",
      "hotelId": "HLLON101",
      "geoCode": {
        "latitude": 51.50729,
        "longitude": -0.12889
      },
      "address": {
        "countryCode": "GB"
      },
      "lastUpdate": "2023-06-15T09:53:26"
    },
    {
      "chainCode": "HL",
      "iataCode": "LON",
      "dupeId": 700020499,
      "name": "HILTON LONDON DOCKLANDS RIVERSIDE",
      "hotelId": "HLLON57D",
      "geoCode": {
        "latitude": 51.50637,
        "longitude": -0.04404
      },
      "address": {
        "countryCode": "GB"
      },
      "lastUpdate": "2023-06-15T09:53:10"
    },
    {
      "chainCode": "HL",
      "iataCode": "LON",
      "dupeId": 700027182,
      "name": "DOUBLETREE BY HILTON LONDON MARBLE ARCH",
      "hotelId": "HLLON611",
      "geoCode": {
        "latitude": 51.51477,
        "longitude": -0.1568
      },
      "address": {
        "countryCode": "GB"
      },
      "lastUpdate": "2023-06-15T10:26:10"
    },
    {
      "chainCode": "HL",
      "iataCode": "LON",
      "dupeId": 700056457,
      "name": "HILTON LONDON TOWER BRIDGE",
      "hotelId": "HLLON102",
      "geoCode": {
        "latitude": 51.50475,
        "longitude": -0.08353
      },
      "address": {
        "countryCode": "GB"
      },
      "lastUpdate": "2023-11-08T04:43:01"
    },
    {
      "chainCode": "HL",
      "iataCode": "LON",
      "dupeId": 700008158,
      "name": "HILTON LONDON ISLINGTON",
      "hotelId": "HLLON104",
      "geoCode": {
        "latitude": 51.53559,
        "longitude": -0.10631
      },
      "address": {
        "countryCode": "GB"
      },
      "lastUpdate": "2024-05-24T09:30:25"
    },
    {
      "chainCode": "HL",
      "iataCode": "LON",
      "dupeId": 700143906,
      "name": "DOUBLETREE TOWER OF LONDON",
      "hotelId": "HLLON583",
      "geoCode": {
        "latitude": 51.51091,
        "longitude": -0.07849
      },
      "address": {
        "countryCode": "GB"
      },
      "lastUpdate": "2023-06-15T10:21:26"
    },
    {
      "chainCode": "HL",
      "iataCode": "LON",
      "dupeId": 700026363,
      "name": "DOUBLETREE LONDON WEST END",
      "hotelId": "HLLON364",
      "geoCode": {
        "latitude": 51.51985,
        "longitude": -0.12213
      },
      "address": {
        "countryCode": "GB"
      },
      "lastUpdate": "2023-06-15T10:05:45"
    },
    {
      "chainCode": "HL",
      "iataCode": "LON",
      "dupeId": 700013395,
      "name": "THE WALDORF HILTON",
      "hotelId": "HLLON555",
      "geoCode": {
        "latitude": 51.51264,
        "longitude": -0.11937
      },
      "address": {
        "countryCode": "GB"
      },
      "lastUpdate": "2023-06-15T09:53:26"
    },
    {
      "chainCode": "HL",
      "iataCode": "LON",
      "dupeId": 700016651,
      "name": "DBLTREE LONDON EALING",
      "hotelId": "HLLON285",
      "geoCode": {
        "latitude": 51.51138,
        "longitude": -0.29076
      },
      "address": {
        "countryCode": "GB"
      },
      "lastUpdate": "2023-06-15T10:23:17"
    },
    {
      "chainCode": "HL",
      "iataCode": "LON",
      "dupeId": 700008150,
      "name": "HILTON LONDON GREEN PARK",
      "hotelId": "HLLON091",
      "geoCode": {
        "latitude": 51.50608,
        "longitude": -0.14699
      },
      "address": {
        "countryCode": "GB"
      },
      "lastUpdate": "2023-06-15T09:52:39"
    },
    {
      "chainCode": "HL",
      "iataCode": "LON",
      "dupeId": 700036343,
      "name": "HILTON WATFORD",
      "hotelId": "HLLON290",
      "geoCode": {
        "latitude": 51.66533,
        "longitude": -0.3606
      },
      "address": {
        "countryCode": "GB"
      },
      "lastUpdate": "2023-06-15T09:53:26"
    },
    {
      "chainCode": "HL",
      "iataCode": "LON",
      "dupeId": 700043184,
      "name": "HILTON LONDON CANARY WHARF",
      "hotelId": "HLLON300",
      "geoCode": {
        "latitude": 51.50054,
        "longitude": -0.01726
      },
      "address": {
        "countryCode": "GB"
      },
      "lastUpdate": "2023-06-15T09:52:07"
    },
    {
      "chainCode": "HO",
      "iataCode": "LON",
      "dupeId": 700095971,
      "name": "WEST LODGE PARK HOTEL",
      "hotelId": "HOLONWLP",
      "geoCode": {
        "latitude": 51.65962,
        "longitude": -0.15389
      },
      "address": {
        "countryCode": "GB"
      },
      "lastUpdate": "2023-06-15T09:53:26"
    },
    {
      "chainCode": "HO",
      "iataCode": "LON",
      "dupeId": 700189822,
      "name": "THE NADLER SOHO HOTEL",
      "hotelId": "HOLON187",
      "geoCode": {
        "latitude": 51.51475,
        "longitude": -0.13411
      },
      "address": {
        "countryCode": "GB"
      },
      "lastUpdate": "2023-06-15T11:05:43"
    },
    {
      "chainCode": "HO",
      "iataCode": "LON",
      "dupeId": 700076546,
      "name": "CORBIGOE HOTEL",
      "hotelId": "HOLONCRB",
      "geoCode": {
        "latitude": 51.48959,
        "longitude": -0.13655
      },
      "address": {
        "countryCode": "GB"
      },
      "lastUpdate": "2023-06-15T10:17:30"
    },
    {
      "chainCode": "HO",
      "iataCode": "LON",
      "dupeId": 700020818,
      "name": "LORDS HOTEL",
      "hotelId": "HOLONLOR",
      "geoCode": {
        "latitude": 51.51421,
        "longitude": -0.19169
      },
      "address": {
        "countryCode": "GB"
      },
      "lastUpdate": "2023-06-15T10:16:43"
    },
    {
      "chainCode": "HO",
      "iataCode": "LON",
      "dupeId": 700012272,
      "name": "THE SANCTUARY HOUSE HOTEL",
      "hotelId": "HOLONSHH",
      "geoCode": {
        "latitude": 51.49969,
        "longitude": -0.13203
      },
      "address": {
        "countryCode": "GB"
      },
      "lastUpdate": "2023-06-15T09:53:10"
    },
    {
      "chainCode": "HO",
      "iataCode": "LON",
      "dupeId": 501719575,
      "name": "KEW GARDEN HOTEL",
      "hotelId": "HOLONKGA",
      "geoCode": {
        "latitude": 51.47636,
        "longitude": -0.28719
      },
      "address": {
        "countryCode": "GB"
      },
      "lastUpdate": "2023-06-15T11:13:13"
    },
    {
      "chainCode": "HO",
      "iataCode": "LON",
      "dupeId": 700096356,
      "name": "RICHMOND HILL HOTEL",
      "hotelId": "HOLON088",
      "geoCode": {
        "latitude": 51.45187,
        "longitude": -0.29808
      },
      "address": {
        "countryCode": "GB"
      },
      "lastUpdate": "2023-06-15T09:52:07"
    },
    {
      "chainCode": "HO",
      "iataCode": "LON",
      "dupeId": 700061024,
      "name": "AUBREY PARK HOTEL",
      "hotelId": "HOLONHEX",
      "geoCode": {
        "latitude": 51.78748,
        "longitude": -0.41412
      },
      "address": {
        "countryCode": "GB"
      },
      "lastUpdate": "2023-06-15T10:27:44"
    },
    {
      "chainCode": "HO",
      "iataCode": "LON",
      "dupeId": 700010505,
      "name": "NORFOLK PLAZA HOTEL",
      "hotelId": "HOLONNFP",
      "geoCode": {
        "latitude": 51.51617,
        "longitude": -0.17257
      },
      "address": {
        "countryCode": "GB"
      },
      "lastUpdate": "2023-06-15T09:53:26"
    },
    {
      "chainCode": "HO",
      "iataCode": "LON",
      "dupeId": 700043691,
      "name": "THE FOX AND GOOSE",
      "hotelId": "HOLONFOX",
      "geoCode": {
        "latitude": 51.53127,
        "longitude": -0.29469
      },
      "address": {
        "countryCode": "GB"
      },
      "lastUpdate": "2023-06-15T09:52:07"
    },
    {
      "chainCode": "HO",
      "iataCode": "LON",
      "dupeId": 700057834,
      "name": "CANNIZARO HOUSE",
      "hotelId": "HOLONCAN",
      "geoCode": {
        "latitude": 51.42434,
        "longitude": -0.22922
      },
      "address": {
        "countryCode": "GB"
      },
      "lastUpdate": "2023-06-15T10:13:04"
    },
    {
      "chainCode": "HS",
      "iataCode": "LON",
      "dupeId": 700130876,
      "name": "THE CRAVEN FORMALLY CROWN HYDE PARK",
      "hotelId": "HSLONAXW",
      "geoCode": {
        "latitude": 51.51288,
        "longitude": -0.17891
      },
      "address": {
        "countryCode": "GB"
      },
      "lastUpdate": "2023-06-15T11:19:19"
    },
    {
      "chainCode": "HS",
      "iataCode": "LON",
      "dupeId": 501819953,
      "name": "10 PEMBRIDGE GARDENS NOTTING HILL GATE",
      "hotelId": "HSLONAZS",
      "geoCode": {
        "latitude": 51.50975,
        "longitude": -0.19659
      },
      "address": {
        "countryCode": "GB"
      },
      "lastUpdate": "2023-06-15T11:18:25"
    },
    {
      "chainCode": "HS",
      "iataCode": "LON",
      "dupeId": 501819942,
      "name": "GRESHAM",
      "hotelId": "HSLONAPN",
      "geoCode": {
        "latitude": 51.51591,
        "longitude": -0.17191
      },
      "address": {
        "countryCode": "GB"
      },
      "lastUpdate": "2023-06-15T11:17:53"
    },
    {
      "chainCode": "HS",
      "iataCode": "LON",
      "dupeId": 700022425,
      "name": "NAYLAND",
      "hotelId": "HSLONAMZ",
      "geoCode": {
        "latitude": 51.51552,
        "longitude": -0.17222
      },
      "address": {
        "countryCode": "GB"
      },
      "lastUpdate": "2023-06-15T11:15:23"
    },
    {
      "chainCode": "HS",
      "iataCode": "LON",
      "dupeId": 700131281,
      "name": "DYLAN APARTMENTS PADDINGTON",
      "hotelId": "HSLONAXT",
      "geoCode": {
        "latitude": 51.51425,
        "longitude": -0.18055
      },
      "address": {
        "countryCode": "GB"
      },
      "lastUpdate": "2023-06-15T10:32:27"
    },
    {
      "chainCode": "HS",
      "iataCode": "LON",
      "dupeId": 700095538,
      "name": "HOTEL ONESIXTWO",
      "hotelId": "HSLONBEH",
      "geoCode": {
        "latitude": 51.47816,
        "longitude": 0.01906
      },
      "address": {
        "countryCode": "GB"
      },
      "lastUpdate": "2023-06-15T11:18:25"
    },
    {
      "chainCode": "HS",
      "iataCode": "LON",
      "dupeId": 700130402,
      "name": "CASTLETON",
      "hotelId": "HSLONAPG",
      "geoCode": {
        "latitude": 51.51509,
        "longitude": -0.17349
      },
      "address": {
        "countryCode": "GB"
      },
      "lastUpdate": "2023-06-15T10:39:31"
    },
    {
      "chainCode": "HS",
      "iataCode": "LON",
      "dupeId": 700008015,
      "name": "HANOVER",
      "hotelId": "HSLONAEL",
      "geoCode": {
        "latitude": 51.49089,
        "longitude": -0.14338
      },
      "address": {
        "countryCode": "GB"
      },
      "lastUpdate": "2023-06-15T11:06:27"
    },
    {
      "chainCode": "HS",
      "iataCode": "LON",
      "dupeId": 700147610,
      "name": "BOKA",
      "hotelId": "HSLONBCF",
      "geoCode": {
        "latitude": 51.4888,
        "longitude": -0.19582
      },
      "address": {
        "countryCode": "GB"
      },
      "lastUpdate": "2023-06-15T11:05:11"
    },
    {
      "chainCode": "HS",
      "iataCode": "LON",
      "dupeId": 700134956,
      "name": "PARKWOOD",
      "hotelId": "HSLONAWY",
      "geoCode": {
        "latitude": 51.51343,
        "longitude": -0.1631
      },
      "address": {
        "countryCode": "GB"
      },
      "lastUpdate": "2023-06-15T10:38:29"
    },
    {
      "chainCode": "HS",
      "iataCode": "LON",
      "dupeId": 700076577,
      "name": "FITZROY",
      "hotelId": "HSLONBCL",
      "geoCode": {
        "latitude": 51.52375,
        "longitude": -0.14038
      },
      "address": {
        "countryCode": "GB"
      },
      "lastUpdate": "2023-06-15T11:05:00"
    },
    {
      "chainCode": "HS",
      "iataCode": "LON",
      "dupeId": 700120573,
      "name": "ROYAL LONDON",
      "hotelId": "HSLONAJB",
      "geoCode": {
        "latitude": 51.50071,
        "longitude": -0.22188
      },
      "address": {
        "countryCode": "GB"
      },
      "lastUpdate": "2023-06-15T11:14:08"
    },
    {
      "chainCode": "HS",
      "iataCode": "LON",
      "dupeId": 700151417,
      "name": "BRITANNIA INN",
      "hotelId": "HSLONAVP",
      "geoCode": {
        "latitude": 51.56377,
        "longitude": 0.06562
      },
      "address": {
        "countryCode": "GB"
      },
      "lastUpdate": "2023-06-15T10:38:44"
    },
    {
      "chainCode": "HS",
      "iataCode": "LON",
      "dupeId": 700194620,
      "name": "GOWER HOUSE",
      "hotelId": "HSLONARI",
      "geoCode": {
        "latitude": 51.52164,
        "longitude": -0.13186
      },
      "address": {
        "countryCode": "GB"
      },
      "lastUpdate": "2023-06-15T11:16:48"
    },
    {
      "chainCode": "HS",
      "iataCode": "LON",
      "dupeId": 700006982,
      "name": "EDEN PLAZA",
      "hotelId": "HSLONAUX",
      "geoCode": {
        "latitude": 51.49526,
        "longitude": -0.17924
      },
      "address": {
        "countryCode": "GB"
      },
      "lastUpdate": "2023-06-15T10:40:19"
    },
    {
      "chainCode": "HS",
      "iataCode": "LON",
      "dupeId": 700129079,
      "name": "APARTHOTEL 73",
      "hotelId": "HSLONAXM",
      "geoCode": {
        "latitude": 51.51322,
        "longitude": -0.18687
      },
      "address": {
        "countryCode": "GB"
      },
      "lastUpdate": "2023-06-15T11:06:48"
    },
    {
      "chainCode": "HS",
      "iataCode": "LON",
      "dupeId": 700137133,
      "name": "SURTEES",
      "hotelId": "HSLONAVU",
      "geoCode": {
        "latitude": 51.49121,
        "longitude": -0.14265
      },
      "address": {
        "countryCode": "GB"
      },
      "lastUpdate": "2023-06-15T10:38:13"
    },
    {
      "chainCode": "HS",
      "iataCode": "LON",
      "dupeId": 700219689,
      "name": "HOLLAND PARK GROVE",
      "hotelId": "HSLONBDM",
      "geoCode": {
        "latitude": 51.50581,
        "longitude": -0.22254
      },
      "address": {
        "countryCode": "GB"
      },
      "lastUpdate": "2023-06-15T11:13:46"
    },
    {
      "chainCode": "HS",
      "iataCode": "LON",
      "dupeId": 700078996,
      "name": "EUROTRAVELLER HOTEL EXPRESS ELEPHANT - C",
      "hotelId": "HSLONBGP",
      "geoCode": {
        "latitude": 51.49001,
        "longitude": -0.09758
      },
      "address": {
        "countryCode": "GB"
      },
      "lastUpdate": "2023-06-15T11:18:57"
    },
    {
      "chainCode": "HS",
      "iataCode": "LON",
      "dupeId": 700133884,
      "name": "LIDOS",
      "hotelId": "HSLONAWE",
      "geoCode": {
        "latitude": 51.49081,
        "longitude": -0.13879
      },
      "address": {
        "countryCode": "GB"
      },
      "lastUpdate": "2023-06-15T10:38:13"
    },
    {
      "chainCode": "HS",
      "iataCode": "LON",
      "dupeId": 700219699,
      "name": "CAMDEN TOWN",
      "hotelId": "HSLONBFS",
      "geoCode": {
        "latitude": 51.54805,
        "longitude": -0.13052
      },
      "address": {
        "countryCode": "GB"
      },
      "lastUpdate": "2023-06-15T11:19:19"
    },
    {
      "chainCode": "HS",
      "iataCode": "LON",
      "dupeId": 700165373,
      "name": "THE JENKINS",
      "hotelId": "HSLONBAH",
      "geoCode": {
        "latitude": 51.52667,
        "longitude": -0.12745
      },
      "address": {
        "countryCode": "GB"
      },
      "lastUpdate": "2023-06-15T10:40:34"
    },
    {
      "chainCode": "HS",
      "iataCode": "LON",
      "dupeId": 700081191,
      "name": "CAMDEN LOCK",
      "hotelId": "HSLONBGV",
      "geoCode": {
        "latitude": 51.54379,
        "longitude": -0.15179
      },
      "address": {
        "countryCode": "GB"
      },
      "lastUpdate": "2023-06-15T11:16:48"
    },
    {
      "chainCode": "HS",
      "iataCode": "LON",
      "dupeId": 700194617,
      "name": "27 PADDINGTON",
      "hotelId": "HSLONAXR",
      "geoCode": {
        "latitude": 51.51405,
        "longitude": -0.17817
      },
      "address": {
        "countryCode": "GB"
      },
      "lastUpdate": "2023-06-15T11:19:19"
    },
    {
      "chainCode": "HS",
      "iataCode": "LON",
      "dupeId": 700165382,
      "name": "MACY'S",
      "hotelId": "HSLONBCE",
      "geoCode": {
        "latitude": 51.6253,
        "longitude": -0.02175
      },
      "address": {
        "countryCode": "GB"
      },
      "lastUpdate": "2023-06-15T11:08:14"
    },
    {
      "chainCode": "HS",
      "iataCode": "LON",
      "dupeId": 700133169,
      "name": "JUBILEE HOTEL",
      "hotelId": "HSLONBGF",
      "geoCode": {
        "latitude": 51.49133,
        "longitude": -0.1456
      },
      "address": {
        "countryCode": "GB"
      },
      "lastUpdate": "2023-06-15T11:15:45"
    },
    {
      "chainCode": "HS",
      "iataCode": "LON",
      "dupeId": 501819935,
      "name": "ROSE COURT",
      "hotelId": "HSLONAIO",
      "geoCode": {
        "latitude": 51.51517,
        "longitude": -0.15981
      },
      "address": {
        "countryCode": "GB"
      },
      "lastUpdate": "2023-06-15T11:19:19"
    },
    {
      "chainCode": "HS",
      "iataCode": "LON",
      "dupeId": 700076574,
      "name": "BEACONSFIELD",
      "hotelId": "HSLONBDN",
      "geoCode": {
        "latitude": 51.57593,
        "longitude": -0.09877
      },
      "address": {
        "countryCode": "GB"
      },
      "lastUpdate": "2023-06-15T11:17:53"
    },
    {
      "chainCode": "HS",
      "iataCode": "LON",
      "dupeId": 700219691,
      "name": "HAVERSTOCK",
      "hotelId": "HSLONBFP",
      "geoCode": {
        "latitude": 51.54881,
        "longitude": -0.16173
      },
      "address": {
        "countryCode": "GB"
      },
      "lastUpdate": "2023-06-15T11:13:57"
    },
    {
      "chainCode": "HS",
      "iataCode": "LON",
      "dupeId": 700194614,
      "name": "THE KENSINGTON STUDIOS",
      "hotelId": "HSLONBBJ",
      "geoCode": {
        "latitude": 51.49855,
        "longitude": -0.2089
      },
      "address": {
        "countryCode": "GB"
      },
      "lastUpdate": "2023-06-15T11:16:48"
    },
    {
      "chainCode": "HS",
      "iataCode": "LON",
      "dupeId": 700211713,
      "name": "GO NATIVE MAYFAIR",
      "hotelId": "HSLONBDA",
      "geoCode": {
        "latitude": 51.51215,
        "longitude": -0.15439
      },
      "address": {
        "countryCode": "GB"
      },
      "lastUpdate": "2023-06-15T11:17:53"
    },
    {
      "chainCode": "HS",
      "iataCode": "LON",
      "dupeId": 700095597,
      "name": "CHESTER HOTEL VICTORIA",
      "hotelId": "HSLONBFF",
      "geoCode": {
        "latitude": 51.49235,
        "longitude": -0.14086
      },
      "address": {
        "countryCode": "GB"
      },
      "lastUpdate": "2023-06-15T11:17:31"
    },
    {
      "chainCode": "HS",
      "iataCode": "LON",
      "dupeId": 501819933,
      "name": "BRITANNIA INTERNATIONAL",
      "hotelId": "HSLONAES",
      "geoCode": {
        "latitude": 51.49961,
        "longitude": -0.01768
      },
      "address": {
        "countryCode": "GB"
      },
      "lastUpdate": "2023-06-15T11:15:23"
    },
    {
      "chainCode": "HS",
      "iataCode": "LON",
      "dupeId": 700165402,
      "name": "CORONATION",
      "hotelId": "HSLONAXX",
      "geoCode": {
        "latitude": 51.49269,
        "longitude": -0.19684
      },
      "address": {
        "countryCode": "GB"
      },
      "lastUpdate": "2023-06-15T11:06:05"
    },
    {
      "chainCode": "HS",
      "iataCode": "LON",
      "dupeId": 700033593,
      "name": "SHAKESPEARE HOTEL",
      "hotelId": "HSLONBGE",
      "geoCode": {
        "latitude": 51.51596,
        "longitude": -0.17295
      },
      "address": {
        "countryCode": "GB"
      },
      "lastUpdate": "2023-06-15T11:19:19"
    },
    {
      "chainCode": "HS",
      "iataCode": "LON",
      "dupeId": 700095691,
      "name": "BELVEDERE",
      "hotelId": "HSLONBEM",
      "geoCode": {
        "latitude": 51.51656,
        "longitude": -0.17288
      },
      "address": {
        "countryCode": "GB"
      },
      "lastUpdate": "2023-06-15T11:15:23"
    },
    {
      "chainCode": "HS",
      "iataCode": "LON",
      "dupeId": 700174549,
      "name": "QUEENS DRIVE",
      "hotelId": "HSLONBBV",
      "geoCode": {
        "latitude": 51.56587,
        "longitude": -0.10153
      },
      "address": {
        "countryCode": "GB"
      },
      "lastUpdate": "2023-06-15T11:04:39"
    },
    {
      "chainCode": "HS",
      "iataCode": "LON",
      "dupeId": 700194619,
      "name": "SABA LONDON",
      "hotelId": "HSLONAVF",
      "geoCode": {
        "latitude": 51.50237,
        "longitude": -0.22261
      },
      "address": {
        "countryCode": "GB"
      },
      "lastUpdate": "2023-06-15T11:13:46"
    },
    {
      "chainCode": "HS",
      "iataCode": "LON",
      "dupeId": 700174525,
      "name": "ROYAL GUEST HOUSE 2",
      "hotelId": "HSLONARV",
      "geoCode": {
        "latitude": 51.49797,
        "longitude": -0.22229
      },
      "address": {
        "countryCode": "GB"
      },
      "lastUpdate": "2023-06-15T11:17:31"
    },
    {
      "chainCode": "HS",
      "iataCode": "LON",
      "dupeId": 501819982,
      "name": "EURO HOTEL HAMMERSMITH",
      "hotelId": "HSLONBGI",
      "geoCode": {
        "latitude": 51.50116,
        "longitude": -0.2218
      },
      "address": {
        "countryCode": "GB"
      },
      "lastUpdate": "2023-06-15T11:16:48"
    },
    {
      "chainCode": "HS",
      "iataCode": "LON",
      "dupeId": 700220024,
      "name": "SAPPHIRE",
      "hotelId": "HSLONBDB",
      "geoCode": {
        "latitude": 51.50097,
        "longitude": -0.22179
      },
      "address": {
        "countryCode": "GB"
      },
      "lastUpdate": "2023-06-15T11:14:40"
    },
    {
      "chainCode": "HS",
      "iataCode": "LON",
      "dupeId": 501819988,
      "name": "ST GEORGE'S PIMLICO PIMLICO HOTELIERS LT",
      "hotelId": "HSLONBGS",
      "geoCode": {
        "latitude": 51.48853,
        "longitude": -0.13952
      },
      "address": {
        "countryCode": "GB"
      },
      "lastUpdate": "2023-06-15T11:17:53"
    },
    {
      "chainCode": "HS",
      "iataCode": "LON",
      "dupeId": 700020769,
      "name": "ORCHARD",
      "hotelId": "HSLONARU",
      "geoCode": {
        "latitude": 51.5162,
        "longitude": -0.17087
      },
      "address": {
        "countryCode": "GB"
      },
      "lastUpdate": "2023-06-15T11:18:57"
    },
    {
      "chainCode": "HS",
      "iataCode": "LON",
      "dupeId": 700170986,
      "name": "RIDGEWAY",
      "hotelId": "HSLONBGY",
      "geoCode": {
        "latitude": 51.62673,
        "longitude": -0.00894
      },
      "address": {
        "countryCode": "GB"
      },
      "lastUpdate": "2023-06-15T11:18:57"
    },
    {
      "chainCode": "HS",
      "iataCode": "LON",
      "dupeId": 501819974,
      "name": "APARTHOTELS LONDON - TOWER BRIDGE",
      "hotelId": "HSLONBFU",
      "geoCode": {
        "latitude": 51.50308,
        "longitude": -0.07671
      },
      "address": {
        "countryCode": "GB"
      },
      "lastUpdate": "2023-06-15T11:19:19"
    },
    {
      "chainCode": "HS",
      "iataCode": "LON",
      "dupeId": 700137490,
      "name": "THE SUMNER",
      "hotelId": "HSLONBCY",
      "geoCode": {
        "latitude": 51.51519,
        "longitude": -0.16092
      },
      "address": {
        "countryCode": "GB"
      },
      "lastUpdate": "2023-06-15T11:15:23"
    },
    {
      "chainCode": "HS",
      "iataCode": "LON",
      "dupeId": 700170995,
      "name": "BELLE COUR",
      "hotelId": "HSLONBBI",
      "geoCode": {
        "latitude": 51.49341,
        "longitude": -0.1399
      },
      "address": {
        "countryCode": "GB"
      },
      "lastUpdate": "2023-06-15T10:32:27"
    },
    {
      "chainCode": "HS",
      "iataCode": "LON",
      "dupeId": 700076587,
      "name": "ENRICO",
      "hotelId": "HSLONAMI",
      "geoCode": {
        "latitude": 51.49152,
        "longitude": -0.14301
      },
      "address": {
        "countryCode": "GB"
      },
      "lastUpdate": "2023-06-15T11:19:29"
    },
    {
      "chainCode": "HS",
      "iataCode": "LON",
      "dupeId": 700194603,
      "name": "PARK VIEW",
      "hotelId": "HSLONBBL",
      "geoCode": {
        "latitude": 51.56477,
        "longitude": -0.10225
      },
      "address": {
        "countryCode": "GB"
      },
      "lastUpdate": "2023-06-15T11:16:48"
    },
    {
      "chainCode": "HS",
      "iataCode": "LON",
      "dupeId": 700165397,
      "name": "THE JUSTIN JAMES HOTEL",
      "hotelId": "HSLONBEK",
      "geoCode": {
        "latitude": 51.42029,
        "longitude": -0.21108
      },
      "address": {
        "countryCode": "GB"
      },
      "lastUpdate": "2023-06-15T11:18:57"
    },
    {
      "chainCode": "HS",
      "iataCode": "LON",
      "dupeId": 700129516,
      "name": "AVALON HOUSE",
      "hotelId": "HSLONAVZ",
      "geoCode": {
        "latitude": 51.74031,
        "longitude": -0.3184
      },
      "address": {
        "countryCode": "GB"
      },
      "lastUpdate": "2023-06-15T10:33:15"
    },
    {
      "chainCode": "HS",
      "iataCode": "LON",
      "dupeId": 700095521,
      "name": "KADIMAH HOTEL",
      "hotelId": "HSLONAXD",
      "geoCode": {
        "latitude": 51.57296,
        "longitude": -0.07047
      },
      "address": {
        "countryCode": "GB"
      },
      "lastUpdate": "2023-06-15T10:40:04"
    },
    {
      "chainCode": "HS",
      "iataCode": "LON",
      "dupeId": 700143336,
      "name": "TWICKENHAM GUEST HOUSE",
      "hotelId": "HSLONBGJ",
      "geoCode": {
        "latitude": 51.45373,
        "longitude": -0.33756
      },
      "address": {
        "countryCode": "GB"
      },
      "lastUpdate": "2023-06-15T11:17:31"
    },
    {
      "chainCode": "HY",
      "iataCode": "LON",
      "dupeId": 700029595,
      "name": "ANDAZ LIVERPOOL STREET LONDON",
      "hotelId": "HYLONGRE",
      "geoCode": {
        "latitude": 51.51651,
        "longitude": -0.08191
      },
      "address": {
        "countryCode": "GB"
      },
      "lastUpdate": "2023-06-15T09:52:23"
    },
    {
      "chainCode": "IC",
      "iataCode": "LON",
      "dupeId": 700009552,
      "name": "INTERCONTINENTAL LONDON PARK",
      "hotelId": "ICLONICA",
      "geoCode": {
        "latitude": 51.5036,
        "longitude": -0.14981
      },
      "address": {
        "countryCode": "GB"
      },
      "lastUpdate": "2023-06-15T09:53:26"
    },
    {
      "chainCode": "IN",
      "iataCode": "LON",
      "dupeId": 700005057,
      "name": "HOTEL INDIGO KENSINGTON EARL",
      "hotelId": "INLON402",
      "geoCode": {
        "latitude": 51.4919,
        "longitude": -0.19188
      },
      "address": {
        "countryCode": "GB"
      },
      "lastUpdate": "2023-06-15T10:12:17"
    },
    {
      "chainCode": "IN",
      "iataCode": "LON",
      "dupeId": 700041975,
      "name": "HOTEL INDIGO PADDINGTON",
      "hotelId": "INLONC25",
      "geoCode": {
        "latitude": 51.51528,
        "longitude": -0.17398
      },
      "address": {
        "countryCode": "GB"
      },
      "lastUpdate": "2023-06-15T09:42:57"
    },
    {
      "chainCode": "IQ",
      "iataCode": "LON",
      "dupeId": 700012189,
      "name": "SAINT GEORGES HOTEL",
      "hotelId": "IQLON257",
      "geoCode": {
        "latitude": 51.51784,
        "longitude": -0.14301
      },
      "address": {
        "countryCode": "GB"
      },
      "lastUpdate": "2023-06-15T10:16:28"
    },
    {
      "chainCode": "IQ",
      "iataCode": "LON",
      "dupeId": 700024968,
      "name": "THE OAKLEY COURT HOTEL",
      "hotelId": "IQLONOAC",
      "geoCode": {
        "latitude": 51.49023,
        "longitude": -0.67238
      },
      "address": {
        "countryCode": "GB"
      },
      "lastUpdate": "2023-06-15T10:22:46"
    },
    {
      "chainCode": "IR",
      "iataCode": "LON",
      "dupeId": 700029603,
      "name": "EUSTON SQUARE",
      "hotelId": "IRLON235",
      "geoCode": {
        "latitude": 51.52595,
        "longitude": -0.13639
      },
      "address": {
        "countryCode": "GB"
      },
      "lastUpdate": "2023-06-15T10:08:37"
    },
    {
      "chainCode": "JD",
      "iataCode": "LON",
      "dupeId": 700008849,
      "name": "THE KENSINGTON HOTEL",
      "hotelId": "JDLONJUR",
      "geoCode": {
        "latitude": 51.49458,
        "longitude": -0.17892
      },
      "address": {
        "countryCode": "GB"
      },
      "lastUpdate": "2023-06-15T09:52:23"
    },
    {
      "chainCode": "JD",
      "iataCode": "LON",
      "dupeId": 700008850,
      "name": "THE BLOOMSBURY HOTEL",
      "hotelId": "JDLONJGR",
      "geoCode": {
        "latitude": 51.5171,
        "longitude": -0.13062000000000002
      },
      "address": {
        "countryCode": "GB"
      },
      "lastUpdate": "2023-06-15T09:53:26"
    },
    {
      "chainCode": "JT",
      "iataCode": "LON",
      "dupeId": 700174550,
      "name": "GROSVENOR HOUSE APARTMENTS",
      "hotelId": "JTLONGHA",
      "geoCode": {
        "latitude": 51.50992,
        "longitude": -0.15509
      },
      "address": {
        "countryCode": "GB"
      },
      "lastUpdate": "2023-06-15T10:14:54"
    },
    {
      "chainCode": "JT",
      "iataCode": "LON",
      "dupeId": 700021301,
      "name": "JUMEIRAH CARLTON TOWER",
      "hotelId": "JTLON423",
      "geoCode": {
        "latitude": 51.49848,
        "longitude": -0.15839
      },
      "address": {
        "countryCode": "GB"
      },
      "lastUpdate": "2023-06-15T09:53:26"
    },
    {
      "chainCode": "KY",
      "iataCode": "LON",
      "dupeId": 700006933,
      "name": "DUKE OF LEINSTER HOTEL",
      "hotelId": "KYLONDUK",
      "geoCode": {
        "latitude": 51.51312,
        "longitude": -0.18404
      },
      "address": {
        "countryCode": "GB"
      },
      "lastUpdate": "2023-06-15T10:23:33"
    },
    {
      "chainCode": "LM",
      "iataCode": "LON",
      "dupeId": 700010646,
      "name": "OLIVER PLAZA",
      "hotelId": "LMLONOLI",
      "geoCode": {
        "latitude": 51.49139,
        "longitude": -0.19541
      },
      "address": {
        "countryCode": "GB"
      },
      "lastUpdate": "2023-06-15T09:52:23"
    },
    {
      "chainCode": "LU",
      "iataCode": "LON",
      "dupeId": 700095468,
      "name": "PARK GRAND LONDON PADDINGTON",
      "hotelId": "LULONTPG",
      "geoCode": {
        "latitude": 51.51416,
        "longitude": -0.18169
      },
      "address": {
        "countryCode": "GB"
      },
      "lastUpdate": "2023-06-15T11:10:23"
    },
    {
      "chainCode": "LU",
      "iataCode": "LON",
      "dupeId": 700045511,
      "name": "THE MARBLE ARCH BY MONTCALM",
      "hotelId": "LULON122",
      "geoCode": {
        "latitude": 51.51515,
        "longitude": -0.16017
      },
      "address": {
        "countryCode": "GB"
      },
      "lastUpdate": "2023-06-15T10:36:24"
    },
    {
      "chainCode": "LW",
      "iataCode": "LON",
      "dupeId": 700095951,
      "name": "THE GROVE",
      "hotelId": "LWLON424",
      "geoCode": {
        "latitude": 51.67727,
        "longitude": -0.43651
      },
      "address": {
        "countryCode": "GB"
      },
      "lastUpdate": "2023-06-15T09:53:11"
    },
    {
      "chainCode": "LW",
      "iataCode": "LON",
      "dupeId": 700010676,
      "name": "ONE ALDWYCH",
      "hotelId": "LWLON416",
      "geoCode": {
        "latitude": 51.51237,
        "longitude": -0.11873
      },
      "address": {
        "countryCode": "GB"
      },
      "lastUpdate": "2023-06-15T09:53:26"
    },
    {
      "chainCode": "LW",
      "iataCode": "LON",
      "dupeId": 700023453,
      "name": "BAGLIONI HOTEL LONDON",
      "hotelId": "LWLON428",
      "geoCode": {
        "latitude": 51.50171,
        "longitude": -0.18456
      },
      "address": {
        "countryCode": "GB"
      },
      "lastUpdate": "2023-06-15T09:53:26"
    },
    {
      "chainCode": "LW",
      "iataCode": "LON",
      "dupeId": 700011871,
      "name": "THE RITZ LONDON",
      "hotelId": "LWLON999",
      "geoCode": {
        "latitude": 51.50951,
        "longitude": -0.13551
      },
      "address": {
        "countryCode": "US"
      },
      "lastUpdate": "2023-06-15T09:52:23"
    },
    {
      "chainCode": "LX",
      "iataCode": "LON",
      "dupeId": 700012937,
      "name": "ST JAMES HOTEL AND CLUB LONDON",
      "hotelId": "LXLONSJH",
      "geoCode": {
        "latitude": 51.50608,
        "longitude": -0.14074
      },
      "address": {
        "countryCode": "GB"
      },
      "lastUpdate": "2023-06-15T10:18:02"
    },
    {
      "chainCode": "LX",
      "iataCode": "LON",
      "dupeId": 700096313,
      "name": "STOKE PARK",
      "hotelId": "LXLON418",
      "geoCode": {
        "latitude": 51.54566,
        "longitude": -0.59501
      },
      "address": {
        "countryCode": "GB"
      },
      "lastUpdate": "2023-06-15T09:52:23"
    },
    {
      "chainCode": "MC",
      "iataCode": "LON",
      "dupeId": 700060021,
      "name": "BEXLEYHEATH MARRIOTT HOTEL",
      "hotelId": "MCLONBHM",
      "geoCode": {
        "latitude": 51.45541,
        "longitude": 0.15204
      },
      "address": {
        "countryCode": "GB"
      },
      "lastUpdate": "2023-06-15T09:52:23"
    },
    {
      "chainCode": "MC",
      "iataCode": "LON",
      "dupeId": 700024233,
      "name": "LONDON MARRIOTT REGENTS PARK",
      "hotelId": "MCLONRPK",
      "geoCode": {
        "latitude": 51.54187,
        "longitude": -0.17099
      },
      "address": {
        "countryCode": "GB"
      },
      "lastUpdate": "2024-05-20T06:12:15"
    },
    {
      "chainCode": "MC",
      "iataCode": "LON",
      "dupeId": 700009923,
      "name": "LONDON MARRIOTT MARBLE ARCH",
      "hotelId": "MCLONMAR",
      "geoCode": {
        "latitude": 51.51587,
        "longitude": -0.16413
      },
      "address": {
        "countryCode": "GB"
      },
      "lastUpdate": "2023-06-15T09:52:23"
    },
    {
      "chainCode": "MC",
      "iataCode": "LON",
      "dupeId": 700024273,
      "name": "LONDON MARRIOTT PARK LANE",
      "hotelId": "MCLONPLM",
      "geoCode": {
        "latitude": 51.51296,
        "longitude": -0.15772
      },
      "address": {
        "countryCode": "GB"
      },
      "lastUpdate": "2024-05-20T06:11:20"
    },
    {
      "chainCode": "MC",
      "iataCode": "LON",
      "dupeId": 700060042,
      "name": "LONDON MARRIOTT KENSINGTON",
      "hotelId": "MCLONLMM",
      "geoCode": {
        "latitude": 51.49463,
        "longitude": -0.1896
      },
      "address": {
        "countryCode": "GB"
      },
      "lastUpdate": "2024-05-20T06:03:34"
    },
    {
      "chainCode": "MC",
      "iataCode": "LON",
      "dupeId": 700062252,
      "name": "MARRIOTT EXEC APTS LONDON",
      "hotelId": "MCLONERM",
      "geoCode": {
        "latitude": 51.50795,
        "longitude": -0.02404
      },
      "address": {
        "countryCode": "GB"
      },
      "lastUpdate": "2024-05-20T06:07:22"
    },
    {
      "chainCode": "MC",
      "iataCode": "LON",
      "dupeId": 700027181,
      "name": "LONDON MARRIOTT GROSVENOR SQ",
      "hotelId": "MCLONDTG",
      "geoCode": {
        "latitude": 51.51288,
        "longitude": -0.15079
      },
      "address": {
        "countryCode": "GB"
      },
      "lastUpdate": "2024-05-20T06:10:11"
    },
    {
      "chainCode": "MC",
      "iataCode": "LON",
      "dupeId": 700031300,
      "name": "JW MARRIOTT GROSVENOR HOUSE",
      "hotelId": "MCLONGHM",
      "geoCode": {
        "latitude": 51.50988,
        "longitude": -0.15509
      },
      "address": {
        "countryCode": "GB"
      },
      "lastUpdate": "2024-05-27T06:02:32"
    },
    {
      "chainCode": "MC",
      "iataCode": "LON",
      "dupeId": 700024272,
      "name": "LONDON MARRIOTT MAIDA VALE",
      "hotelId": "MCLONWHM",
      "geoCode": {
        "latitude": 51.5357,
        "longitude": -0.19013
      },
      "address": {
        "countryCode": "GB"
      },
      "lastUpdate": "2024-05-20T06:03:21"
    },
    {
      "chainCode": "MC",
      "iataCode": "LON",
      "dupeId": 700060041,
      "name": "LONDON MARRIOTT COUNTY HALL",
      "hotelId": "MCLONCHM",
      "geoCode": {
        "latitude": 51.50106,
        "longitude": -0.11927
      },
      "address": {
        "countryCode": "GB"
      },
      "lastUpdate": "2024-05-27T06:07:53"
    },
    {
      "chainCode": "MC",
      "iataCode": "LON",
      "dupeId": 700060057,
      "name": "WALTHAM ABBEY MARRIOTT",
      "hotelId": "MCLONWAM",
      "geoCode": {
        "latitude": 51.68227,
        "longitude": 0.02076
      },
      "address": {
        "countryCode": "GB"
      },
      "lastUpdate": "2023-06-15T09:52:23"
    },
    {
      "chainCode": "MC",
      "iataCode": "LON",
      "dupeId": 700217189,
      "name": "LONDON MARRIOTT W INDIA QUAY",
      "hotelId": "MCLONCWM",
      "geoCode": {
        "latitude": 51.50795,
        "longitude": -0.02404
      },
      "address": {
        "countryCode": "GB"
      },
      "lastUpdate": "2024-05-20T06:04:41"
    },
    {
      "chainCode": "MD",
      "iataCode": "LON",
      "dupeId": 700009367,
      "name": "LE MERIDIEN PICCADILLY",
      "hotelId": "MDLONMER",
      "geoCode": {
        "latitude": 51.50908,
        "longitude": -0.1368
      },
      "address": {
        "countryCode": "GB"
      },
      "lastUpdate": "2023-06-15T09:52:23"
    },
    {
      "chainCode": "MR",
      "iataCode": "LON",
      "dupeId": 700012943,
      "name": "ST MARTINS LANE",
      "hotelId": "MRLONSML",
      "geoCode": {
        "latitude": 51.51041,
        "longitude": -0.12698
      },
      "address": {
        "countryCode": "GB"
      },
      "lastUpdate": "2023-06-15T09:53:11"
    },
    {
      "chainCode": "MU",
      "iataCode": "LON",
      "dupeId": 501415571,
      "name": "CHELSEA HARBOUR",
      "hotelId": "MULON530",
      "geoCode": {
        "latitude": 51.47571,
        "longitude": -0.18201
      },
      "address": {
        "countryCode": "GB"
      },
      "lastUpdate": "2023-06-15T11:10:02"
    },
    {
      "chainCode": "MU",
      "iataCode": "LON",
      "dupeId": 700024283,
      "name": "MILLENNIUM HOTEL KNIGHTSBRIDGE",
      "hotelId": "MULONCHL",
      "geoCode": {
        "latitude": 51.5004,
        "longitude": -0.1602
      },
      "address": {
        "countryCode": "GB"
      },
      "lastUpdate": "2023-06-15T09:53:11"
    },
    {
      "chainCode": "NS",
      "iataCode": "LON",
      "dupeId": 700041790,
      "name": "NH LONDON KENSINGTON",
      "hotelId": "NSLONKEN",
      "geoCode": {
        "latitude": 51.49495,
        "longitude": -0.19454
      },
      "address": {
        "countryCode": "GB"
      },
      "lastUpdate": "2023-06-15T09:57:22"
    },
    {
      "chainCode": "OD",
      "iataCode": "LON",
      "dupeId": 502027421,
      "name": "OD TEST HOTEL 1",
      "hotelId": "ODLON001",
      "geoCode": {
        "latitude": 38.06035,
        "longitude": -78.49294
      },
      "address": {
        "countryCode": "FR"
      },
      "lastUpdate": "2023-06-15T11:22:53"
    },
    {
      "chainCode": "OI",
      "iataCode": "LON",
      "dupeId": 502345898,
      "name": "TEST HOTEL",
      "hotelId": "OILON123",
      "geoCode": {
        "latitude": 0.0,
        "longitude": 0.0
      },
      "address": {
        "countryCode": "GB"
      },
      "lastUpdate": "2023-10-19T09:47:09"
    },
    {
      "chainCode": "ON",
      "iataCode": "LON",
      "dupeId": 700058701,
      "name": "EBURY HOUSE HOTEL",
      "hotelId": "ONLONEBU",
      "geoCode": {
        "latitude": 51.49361,
        "longitude": -0.14996
      },
      "address": {
        "countryCode": "GB"
      },
      "lastUpdate": "2023-06-15T09:58:09"
    },
    {
      "chainCode": "ON",
      "iataCode": "LON",
      "dupeId": 700130544,
      "name": "CHISWICK LODGE HOTEL",
      "hotelId": "ONLONCLH",
      "geoCode": {
        "latitude": 51.49447,
        "longitude": -0.25534
      },
      "address": {
        "countryCode": "GB"
      },
      "lastUpdate": "2023-06-15T09:58:40"
    },
    {
      "chainCode": "ON",
      "iataCode": "LON",
      "dupeId": 700058698,
      "name": "EATON HOUSE HOTEL",
      "hotelId": "ONLONEAT",
      "geoCode": {
        "latitude": 51.49361,
        "longitude": -0.14997
      },
      "address": {
        "countryCode": "GB"
      },
      "lastUpdate": "2023-06-15T09:55:17"
    },
    {
      "chainCode": "ON",
      "iataCode": "LON",
      "dupeId": 700219932,
      "name": "NATIONAL HOTEL",
      "hotelId": "ONLONNAT",
      "geoCode": {
        "latitude": 51.5917,
        "longitude": -0.14578
      },
      "address": {
        "countryCode": "GB"
      },
      "lastUpdate": "2023-06-15T10:36:56"
    },
    {
      "chainCode": "ON",
      "iataCode": "LON",
      "dupeId": 700009498,
      "name": "HOTEL LILY",
      "hotelId": "ONLONLIL",
      "geoCode": {
        "latitude": 51.48346,
        "longitude": -0.21829
      },
      "address": {
        "countryCode": "GB"
      },
      "lastUpdate": "2023-06-15T09:54:14"
    },
    {
      "chainCode": "ON",
      "iataCode": "LON",
      "dupeId": 700061824,
      "name": "THE HOUSE HOTEL",
      "hotelId": "ONLONHOU",
      "geoCode": {
        "latitude": 51.55453,
        "longitude": -0.17206
      },
      "address": {
        "countryCode": "GB"
      },
      "lastUpdate": "2023-06-15T09:54:14"
    },
    {
      "chainCode": "PH",
      "iataCode": "LON",
      "dupeId": 700095577,
      "name": "DRAYCOTT HOTEL PREFERRED BOUTI",
      "hotelId": "PHLONCLI",
      "geoCode": {
        "latitude": 51.49298,
        "longitude": -0.15963
      },
      "address": {
        "countryCode": "GB"
      },
      "lastUpdate": "2023-06-15T10:19:37"
    },
    {
      "chainCode": "PH",
      "iataCode": "LON",
      "dupeId": 700012081,
      "name": "THE ROYAL PARK HOTEL PREFERRED",
      "hotelId": "PHLONRPK",
      "geoCode": {
        "latitude": 51.51446,
        "longitude": -0.17709
      },
      "address": {
        "countryCode": "GB"
      },
      "lastUpdate": "2023-06-15T10:25:24"
    },
    {
      "chainCode": "PH",
      "iataCode": "LON",
      "dupeId": 700162706,
      "name": "ME LONDON",
      "hotelId": "PHLONMEH",
      "geoCode": {
        "latitude": 51.51208,
        "longitude": -0.11864
      },
      "address": {
        "countryCode": "GB"
      },
      "lastUpdate": "2023-06-15T10:23:01"
    },
    {
      "chainCode": "PH",
      "iataCode": "LON",
      "dupeId": 501544761,
      "name": "THE STAFFORD LONDON PREFERRED",
      "hotelId": "PHLONTSL",
      "geoCode": {
        "latitude": 51.50599,
        "longitude": -0.14068
      },
      "address": {
        "countryCode": "GB"
      },
      "lastUpdate": "2023-06-15T09:43:13"
    },
    {
      "chainCode": "PH",
      "iataCode": "LON",
      "dupeId": 501943655,
      "name": "THE PELHAM HOTEL",
      "hotelId": "PHLONTPH",
      "geoCode": {
        "latitude": 51.49444,
        "longitude": -0.17501
      },
      "address": {
        "countryCode": "GB"
      },
      "lastUpdate": "2023-06-15T10:21:11"
    },
    {
      "chainCode": "PH",
      "iataCode": "LON",
      "dupeId": 501943654,
      "name": "THE GORE HOTEL",
      "hotelId": "PHLONTGH",
      "geoCode": {
        "latitude": 51.5003,
        "longitude": -0.17982
      },
      "address": {
        "countryCode": "GB"
      },
      "lastUpdate": "2023-06-15T11:21:18"
    },
    {
      "chainCode": "PI",
      "iataCode": "LON",
      "dupeId": 502112631,
      "name": "ALPHA LONDON - TOWER BRIDGE",
      "hotelId": "PILONMAB",
      "geoCode": {
        "latitude": 62.1,
        "longitude": -0.11111
      },
      "address": {
        "countryCode": "GB"
      },
      "lastUpdate": "2023-06-15T10:00:46"
    },
    {
      "chainCode": "PI",
      "iataCode": "LON",
      "dupeId": 700135295,
      "name": "PREMIER INN ASCOT",
      "hotelId": "PILONAVU",
      "geoCode": {
        "latitude": 51.41226,
        "longitude": -0.70622
      },
      "address": {
        "countryCode": "GB"
      },
      "lastUpdate": "2023-06-15T10:17:31"
    },
    {
      "chainCode": "PI",
      "iataCode": "LON",
      "dupeId": 700135304,
      "name": "PREMIER INN BARKING",
      "hotelId": "PILONAQH",
      "geoCode": {
        "latitude": 51.53507,
        "longitude": 0.07152
      },
      "address": {
        "countryCode": "GB"
      },
      "lastUpdate": "2023-06-15T09:58:25"
    },
    {
      "chainCode": "PI",
      "iataCode": "LON",
      "dupeId": 700079879,
      "name": "PREMIER INN LONDON ELSTREE - BOREHAMWOOD",
      "hotelId": "PILONAUL",
      "geoCode": {
        "latitude": 51.6585,
        "longitude": -0.2553
      },
      "address": {
        "countryCode": "GB"
      },
      "lastUpdate": "2023-06-15T10:16:29"
    },
    {
      "chainCode": "PI",
      "iataCode": "LON",
      "dupeId": 700140377,
      "name": "PREMIER INN CHESSINGTON",
      "hotelId": "PILONABK",
      "geoCode": {
        "latitude": 51.34691,
        "longitude": -0.31569
      },
      "address": {
        "countryCode": "GB"
      },
      "lastUpdate": "2023-06-15T10:17:31"
    },
    {
      "chainCode": "PI",
      "iataCode": "LON",
      "dupeId": 700135387,
      "name": "PREMIER INN COLCHESTER CENTRAL",
      "hotelId": "PILONAWJ",
      "geoCode": {
        "latitude": 51.89781,
        "longitude": 0.89856
      },
      "address": {
        "countryCode": "GB"
      },
      "lastUpdate": "2023-06-15T10:17:47"
    },
    {
      "chainCode": "PI",
      "iataCode": "LON",
      "dupeId": 700135471,
      "name": "PREMIER INN GRAVESEND CENTRAL",
      "hotelId": "PILONADG",
      "geoCode": {
        "latitude": 51.43184,
        "longitude": 0.36362
      },
      "address": {
        "countryCode": "GB"
      },
      "lastUpdate": "2023-06-15T10:17:00"
    },
    {
      "chainCode": "PI",
      "iataCode": "LON",
      "dupeId": 700192415,
      "name": "PREMIER INN LONDON GREENWICH",
      "hotelId": "PILONAZV",
      "geoCode": {
        "latitude": -0.02055,
        "longitude": -0.02055
      },
      "address": {
        "countryCode": "GB"
      },
      "lastUpdate": "2023-06-15T10:20:24"
    },
    {
      "chainCode": "PI",
      "iataCode": "LON",
      "dupeId": 700140398,
      "name": "PREMIER INN ILFORD",
      "hotelId": "PILONADY",
      "geoCode": {
        "latitude": 51.57696,
        "longitude": 0.04476
      },
      "address": {
        "countryCode": "GB"
      },
      "lastUpdate": "2023-06-15T10:17:47"
    },
    {
      "chainCode": "PI",
      "iataCode": "LON",
      "dupeId": 700186436,
      "name": "PREMIER INN LONDON HARROW",
      "hotelId": "PILONAKD",
      "geoCode": {
        "latitude": 51.58255,
        "longitude": -0.31691
      },
      "address": {
        "countryCode": "GB"
      },
      "lastUpdate": "2023-06-15T10:17:00"
    },
    {
      "chainCode": "PI",
      "iataCode": "LON",
      "dupeId": 700135537,
      "name": "PREMIER INN LONDON EUSTON",
      "hotelId": "PILONAKU",
      "geoCode": {
        "latitude": 51.52774,
        "longitude": -0.12906
      },
      "address": {
        "countryCode": "GB"
      },
      "lastUpdate": "2023-06-15T10:16:28"
    },
    {
      "chainCode": "PI",
      "iataCode": "LON",
      "dupeId": 700135535,
      "name": "PREMIER INN LONDON BECKTON",
      "hotelId": "PILONAAM",
      "geoCode": {
        "latitude": 51.51458,
        "longitude": 0.06086
      },
      "address": {
        "countryCode": "GB"
      },
      "lastUpdate": "2023-06-15T10:17:00"
    },
    {
      "chainCode": "PI",
      "iataCode": "LON",
      "dupeId": 700095494,
      "name": "PREMIER INN LONDON KENSINGTON",
      "hotelId": "PILONAOP",
      "geoCode": {
        "latitude": 51.49348,
        "longitude": -0.19086
      },
      "address": {
        "countryCode": "GB"
      },
      "lastUpdate": "2023-06-15T10:13:05"
    },
    {
      "chainCode": "PI",
      "iataCode": "LON",
      "dupeId": 700076602,
      "name": "PREMIER INN LONDON TOWER BRIDGE",
      "hotelId": "PILONAKW",
      "geoCode": {
        "latitude": 51.50003,
        "longitude": -0.0815
      },
      "address": {
        "countryCode": "GB"
      },
      "lastUpdate": "2023-06-15T10:17:00"
    },
    {
      "chainCode": "PI",
      "iataCode": "LON",
      "dupeId": 700006154,
      "name": "PREMIER INN LONDON KENSINGTON (OLYMPIA)",
      "hotelId": "PILONAYH",
      "geoCode": {
        "latitude": 51.49455,
        "longitude": -0.19658
      },
      "address": {
        "countryCode": "GB"
      },
      "lastUpdate": "2023-06-15T10:16:44"
    },
    {
      "chainCode": "PI",
      "iataCode": "LON",
      "dupeId": 700043107,
      "name": "PREMIER INN LONDON CITY (TOWER HILL)",
      "hotelId": "PILONAPC",
      "geoCode": {
        "latitude": 51.51135,
        "longitude": -0.07195
      },
      "address": {
        "countryCode": "GB"
      },
      "lastUpdate": "2023-06-15T10:19:22"
    },
    {
      "chainCode": "PI",
      "iataCode": "LON",
      "dupeId": 700135541,
      "name": "PREMIER INN LONDON WIMBLEDON SOUTH",
      "hotelId": "PILONAUM",
      "geoCode": {
        "latitude": 51.41407,
        "longitude": -0.18058
      },
      "address": {
        "countryCode": "GB"
      },
      "lastUpdate": "2023-06-15T10:17:47"
    },
    {
      "chainCode": "PI",
      "iataCode": "LON",
      "dupeId": 700015888,
      "name": "PREMIER INN LONDON VICTORIA",
      "hotelId": "PILONAYR",
      "geoCode": {
        "latitude": 51.49259,
        "longitude": -0.14222
      },
      "address": {
        "countryCode": "GB"
      },
      "lastUpdate": "2023-06-15T10:17:16"
    },
    {
      "chainCode": "PI",
      "iataCode": "LON",
      "dupeId": 700135536,
      "name": "PREMIER INN LONDON COUNTY HALL",
      "hotelId": "PILONAKT",
      "geoCode": {
        "latitude": 51.50147,
        "longitude": -0.11876
      },
      "address": {
        "countryCode": "GB"
      },
      "lastUpdate": "2023-06-15T10:16:44"
    },
    {
      "chainCode": "PI",
      "iataCode": "LON",
      "dupeId": 502308331,
      "name": "PREMIER INN PROPERTY ",
      "hotelId": "PILONHOL",
      "geoCode": {
        "latitude": 51.50015,
        "longitude": -0.12624
      },
      "address": {
        "countryCode": "GB"
      },
      "lastUpdate": "2023-06-15T11:08:04"
    },
    {
      "chainCode": "PI",
      "iataCode": "LON",
      "dupeId": 700135639,
      "name": "PREMIER INN ROMFORD CENTRAL",
      "hotelId": "PILONAMP",
      "geoCode": {
        "latitude": 51.578,
        "longitude": 0.18783
      },
      "address": {
        "countryCode": "GB"
      },
      "lastUpdate": "2023-06-15T10:16:14"
    },
    {
      "chainCode": "PI",
      "iataCode": "LON",
      "dupeId": 700135400,
      "name": "PREMIER INN CROYDON SOUTH",
      "hotelId": "PILONABQ",
      "geoCode": {
        "latitude": 51.36269,
        "longitude": -0.07195
      },
      "address": {
        "countryCode": "GB"
      },
      "lastUpdate": "2023-06-15T10:18:03"
    },
    {
      "chainCode": "PI",
      "iataCode": "LON",
      "dupeId": 700135706,
      "name": "PREMIER INN TONBRIDGE NORTH",
      "hotelId": "PILONAVM",
      "geoCode": {
        "latitude": 51.20624,
        "longitude": 0.26137
      },
      "address": {
        "countryCode": "GB"
      },
      "lastUpdate": "2023-06-15T10:17:31"
    },
    {
      "chainCode": "PI",
      "iataCode": "LON",
      "dupeId": 700135705,
      "name": "PREMIER INN TONBRIDGE",
      "hotelId": "PILONAJP",
      "geoCode": {
        "latitude": 51.18135,
        "longitude": 0.28065
      },
      "address": {
        "countryCode": "GB"
      },
      "lastUpdate": "2023-06-15T10:16:44"
    },
    {
      "chainCode": "PI",
      "iataCode": "LON",
      "dupeId": 700140431,
      "name": "PREMIER INN WALTHAM ABBEY",
      "hotelId": "PILONATA",
      "geoCode": {
        "latitude": 51.66891,
        "longitude": 0.00168
      },
      "address": {
        "countryCode": "GB"
      },
      "lastUpdate": "2023-06-15T10:08:53"
    },
    {
      "chainCode": "PI",
      "iataCode": "LON",
      "dupeId": 700140427,
      "name": "PREMIER INN THURROCK WEST",
      "hotelId": "PILONAQW",
      "geoCode": {
        "latitude": 51.48272,
        "longitude": 0.26107
      },
      "address": {
        "countryCode": "GB"
      },
      "lastUpdate": "2023-06-15T10:17:16"
    },
    {
      "chainCode": "PI",
      "iataCode": "LON",
      "dupeId": 700135308,
      "name": "PREMIER INN BASILDON (EAST MAYNE)",
      "hotelId": "PILONAAJ",
      "geoCode": {
        "latitude": 51.58069,
        "longitude": 0.49693
      },
      "address": {
        "countryCode": "GB"
      },
      "lastUpdate": "2023-06-15T10:18:03"
    },
    {
      "chainCode": "PI",
      "iataCode": "LON",
      "dupeId": 700135307,
      "name": "PREMIER INN BASILDON (FESTIVAL PARK)",
      "hotelId": "PILONAQL",
      "geoCode": {
        "latitude": 51.58513,
        "longitude": 0.46247
      },
      "address": {
        "countryCode": "GB"
      },
      "lastUpdate": "2023-06-15T10:19:53"
    },
    {
      "chainCode": "PI",
      "iataCode": "LON",
      "dupeId": 700135309,
      "name": "PREMIER INN BASILDON SOUTH",
      "hotelId": "PILONAAK",
      "geoCode": {
        "latitude": 51.54892,
        "longitude": 0.47021
      },
      "address": {
        "countryCode": "GB"
      },
      "lastUpdate": "2023-06-15T10:16:44"
    },
    {
      "chainCode": "PI",
      "iataCode": "LON",
      "dupeId": 700058833,
      "name": "PREMIER INN BASILDON (RAYLEIGH)",
      "hotelId": "PILONAPI",
      "geoCode": {
        "latitude": 51.5774,
        "longitude": 0.60005
      },
      "address": {
        "countryCode": "GB"
      },
      "lastUpdate": "2023-06-15T10:17:31"
    },